{
"type": "FeatureCollection",
"name": "health_bd",
"crs": { "type": "name", "properties": { "name": "urn:ogc:def:crs:OGC::CRS84" } },
"features": [
{ "type": "Feature", "properties": { "osm_id": "265945386", "code": 2110, "fclass": "hospital", "name": "M.A.G Osmani Medical College Hospital, Sylhet" }, "geometry": { "type": "Point", "coordinates": [ 91.8532444, 24.9003678 ] } },
{ "type": "Feature", "properties": { "osm_id": "266877864", "code": 2110, "fclass": "hospital", "name": "উত্তরা আধুনিক মেডিকেল কলেজ ও হাসপাতা" }, "geometry": { "type": "Point", "coordinates": [ 90.396733, 23.8747993 ] } },
{ "type": "Feature", "properties": { "osm_id": "266885101", "code": 2110, "fclass": "hospital", "name": "Uttara Cresent" }, "geometry": { "type": "Point", "coordinates": [ 90.3966708, 23.867307 ] } },
{ "type": "Feature", "properties": { "osm_id": "354463524", "code": 2110, "fclass": "hospital", "name": "পিজি হাসপাতাল" }, "geometry": { "type": "Point", "coordinates": [ 90.3955527, 23.7391179 ] } },
{ "type": "Feature", "properties": { "osm_id": "364419618", "code": 2110, "fclass": "hospital", "name": "Bangladesh Eye Hospital" }, "geometry": { "type": "Point", "coordinates": [ 90.3673206, 23.7517932 ] } },
{ "type": "Feature", "properties": { "osm_id": "364425541", "code": 2110, "fclass": "hospital", "name": "Gonoshastha Nagar Hospital" }, "geometry": { "type": "Point", "coordinates": [ 90.3825849, 23.7434833 ] } },
{ "type": "Feature", "properties": { "osm_id": "395065676", "code": 2110, "fclass": "hospital", "name": "National Hospital" }, "geometry": { "type": "Point", "coordinates": [ 90.4119161, 23.7106526 ] } },
{ "type": "Feature", "properties": { "osm_id": "540061901", "code": 2110, "fclass": "hospital", "name": "" }, "geometry": { "type": "Point", "coordinates": [ 92.0832259, 21.3247504 ] } },
{ "type": "Feature", "properties": { "osm_id": "621454326", "code": 2110, "fclass": "hospital", "name": "C R P" }, "geometry": { "type": "Point", "coordinates": [ 90.265914, 23.8562496 ] } },
{ "type": "Feature", "properties": { "osm_id": "702577422", "code": 2110, "fclass": "hospital", "name": "Khulna Sadar Hospital" }, "geometry": { "type": "Point", "coordinates": [ 89.5676428, 22.8173748 ] } },
{ "type": "Feature", "properties": { "osm_id": "842543448", "code": 2110, "fclass": "hospital", "name": "Chittagong Medical College Hospital" }, "geometry": { "type": "Point", "coordinates": [ 91.830657, 22.3593346 ] } },
{ "type": "Feature", "properties": { "osm_id": "871761335", "code": 2110, "fclass": "hospital", "name": "Ad-Din Women's Medical college & Hospital" }, "geometry": { "type": "Point", "coordinates": [ 90.4050678, 23.7485032 ] } },
{ "type": "Feature", "properties": { "osm_id": "877863211", "code": 2110, "fclass": "hospital", "name": "Holy Family Red Crescent Medical College and Hospital" }, "geometry": { "type": "Point", "coordinates": [ 90.4027318, 23.746598 ] } },
{ "type": "Feature", "properties": { "osm_id": "1121485809", "code": 2110, "fclass": "hospital", "name": "BUET Health Complex" }, "geometry": { "type": "Point", "coordinates": [ 90.3923798, 23.7279336 ] } },
{ "type": "Feature", "properties": { "osm_id": "1271733441", "code": 2110, "fclass": "hospital", "name": "" }, "geometry": { "type": "Point", "coordinates": [ 90.414386, 23.705982 ] } },
{ "type": "Feature", "properties": { "osm_id": "1329007641", "code": 2110, "fclass": "hospital", "name": "Chittagong Medical College" }, "geometry": { "type": "Point", "coordinates": [ 91.8315438, 22.3601025 ] } },
{ "type": "Feature", "properties": { "osm_id": "1496128734", "code": 2110, "fclass": "hospital", "name": "আমেরিকান সুপারস্পেসটিটি হাসপাতাল" }, "geometry": { "type": "Point", "coordinates": [ 90.4035461, 23.8704897 ] } },
{ "type": "Feature", "properties": { "osm_id": "1635332528", "code": 2110, "fclass": "hospital", "name": "Altaf Uz Zaman Collage & Hospital" }, "geometry": { "type": "Point", "coordinates": [ 88.5863408, 24.3718395 ] } },
{ "type": "Feature", "properties": { "osm_id": "1787174815", "code": 2110, "fclass": "hospital", "name": "Bangladesh Medical College Hospital" }, "geometry": { "type": "Point", "coordinates": [ 90.3697475, 23.7501949 ] } },
{ "type": "Feature", "properties": { "osm_id": "1787175313", "code": 2110, "fclass": "hospital", "name": "ইবনে সিনা হাসপাতাল" }, "geometry": { "type": "Point", "coordinates": [ 90.368919, 23.7515946 ] } },
{ "type": "Feature", "properties": { "osm_id": "1801776695", "code": 2110, "fclass": "hospital", "name": "Community Eye Hospital" }, "geometry": { "type": "Point", "coordinates": [ 91.977268, 21.4436297 ] } },
{ "type": "Feature", "properties": { "osm_id": "1801791952", "code": 2110, "fclass": "hospital", "name": "Central Hospital Cox's Bazar" }, "geometry": { "type": "Point", "coordinates": [ 91.9770314, 21.4423116 ] } },
{ "type": "Feature", "properties": { "osm_id": "1801796034", "code": 2110, "fclass": "hospital", "name": "Dental Care" }, "geometry": { "type": "Point", "coordinates": [ 91.9769886, 21.4423627 ] } },
{ "type": "Feature", "properties": { "osm_id": "1801801222", "code": 2110, "fclass": "hospital", "name": "Dental Care" }, "geometry": { "type": "Point", "coordinates": [ 91.9767396, 21.4423021 ] } },
{ "type": "Feature", "properties": { "osm_id": "1801803164", "code": 2110, "fclass": "hospital", "name": "Chevron Hospital" }, "geometry": { "type": "Point", "coordinates": [ 91.9768442, 21.4412853 ] } },
{ "type": "Feature", "properties": { "osm_id": "1802420571", "code": 2110, "fclass": "hospital", "name": "Digital Hospital" }, "geometry": { "type": "Point", "coordinates": [ 91.976909, 21.4414404 ] } },
{ "type": "Feature", "properties": { "osm_id": "1802422899", "code": 2110, "fclass": "hospital", "name": "Jela Sadar Hospital" }, "geometry": { "type": "Point", "coordinates": [ 91.976916, 21.4415557 ] } },
{ "type": "Feature", "properties": { "osm_id": "1802427248", "code": 2110, "fclass": "hospital", "name": "Chevron Clinical Laboratory" }, "geometry": { "type": "Point", "coordinates": [ 91.9762978, 21.4414701 ] } },
{ "type": "Feature", "properties": { "osm_id": "1802430846", "code": 2110, "fclass": "hospital", "name": "Seaside Hospital" }, "geometry": { "type": "Point", "coordinates": [ 91.9761226, 21.4416511 ] } },
{ "type": "Feature", "properties": { "osm_id": "1848616382", "code": 2110, "fclass": "hospital", "name": "Chittagong Metropolitan Hospital" }, "geometry": { "type": "Point", "coordinates": [ 91.8234566, 22.3589378 ] } },
{ "type": "Feature", "properties": { "osm_id": "1848622264", "code": 2110, "fclass": "hospital", "name": "Metropolitan Clinic" }, "geometry": { "type": "Point", "coordinates": [ 91.8237587, 22.3593393 ] } },
{ "type": "Feature", "properties": { "osm_id": "1848622265", "code": 2110, "fclass": "hospital", "name": "Royal Hospital" }, "geometry": { "type": "Point", "coordinates": [ 91.824298, 22.3593154 ] } },
{ "type": "Feature", "properties": { "osm_id": "1848622267", "code": 2110, "fclass": "hospital", "name": "Bell View Diagonistics" }, "geometry": { "type": "Point", "coordinates": [ 91.8240608, 22.3593299 ] } },
{ "type": "Feature", "properties": { "osm_id": "1936362153", "code": 2110, "fclass": "hospital", "name": "Popular" }, "geometry": { "type": "Point", "coordinates": [ 90.4123483, 23.7410137 ] } },
{ "type": "Feature", "properties": { "osm_id": "1950821381", "code": 2110, "fclass": "hospital", "name": "Rangpur Medial College Hospital" }, "geometry": { "type": "Point", "coordinates": [ 89.2315591, 25.7670137 ] } },
{ "type": "Feature", "properties": { "osm_id": "1962572816", "code": 2110, "fclass": "hospital", "name": "General Hospital" }, "geometry": { "type": "Point", "coordinates": [ 91.8381286, 22.3412045 ] } },
{ "type": "Feature", "properties": { "osm_id": "1963093210", "code": 2110, "fclass": "hospital", "name": "Centre Point Hospital ,  OS" }, "geometry": { "type": "Point", "coordinates": [ 91.833969, 22.3437812 ] } },
{ "type": "Feature", "properties": { "osm_id": "2208594272", "code": 2110, "fclass": "hospital", "name": "Treatment Hospital" }, "geometry": { "type": "Point", "coordinates": [ 91.8297218, 22.3618884 ] } },
{ "type": "Feature", "properties": { "osm_id": "2208595895", "code": 2110, "fclass": "hospital", "name": "Holy Health Hospital" }, "geometry": { "type": "Point", "coordinates": [ 91.8304008, 22.361853 ] } },
{ "type": "Feature", "properties": { "osm_id": "2208720875", "code": 2110, "fclass": "hospital", "name": "Surjer Hasi Clinic" }, "geometry": { "type": "Point", "coordinates": [ 91.8136016, 22.3614315 ] } },
{ "type": "Feature", "properties": { "osm_id": "2208720876", "code": 2110, "fclass": "hospital", "name": "Lions Charitable Eye Hospital" }, "geometry": { "type": "Point", "coordinates": [ 91.8160556, 22.3612206 ] } },
{ "type": "Feature", "properties": { "osm_id": "2208720877", "code": 2110, "fclass": "hospital", "name": "Imperial Hospital" }, "geometry": { "type": "Point", "coordinates": [ 91.7958119, 22.3606679 ] } },
{ "type": "Feature", "properties": { "osm_id": "2208720878", "code": 2110, "fclass": "hospital", "name": "Banghabondhu Memorial Hospital" }, "geometry": { "type": "Point", "coordinates": [ 91.7976924, 22.3615287 ] } },
{ "type": "Feature", "properties": { "osm_id": "2208720880", "code": 2110, "fclass": "hospital", "name": "Holy Crescent Hospital" }, "geometry": { "type": "Point", "coordinates": [ 91.8093557, 22.3620181 ] } },
{ "type": "Feature", "properties": { "osm_id": "2208720882", "code": 2110, "fclass": "hospital", "name": "Chittagong diabetic and general Hospital" }, "geometry": { "type": "Point", "coordinates": [ 91.8024561, 22.3617825 ] } },
{ "type": "Feature", "properties": { "osm_id": "2208720892", "code": 2110, "fclass": "hospital", "name": "USTC Medical College Hospital" }, "geometry": { "type": "Point", "coordinates": [ 91.7981771, 22.3617211 ] } },
{ "type": "Feature", "properties": { "osm_id": "2209597818", "code": 2110, "fclass": "hospital", "name": "Medical Square" }, "geometry": { "type": "Point", "coordinates": [ 91.868978, 22.3942639 ] } },
{ "type": "Feature", "properties": { "osm_id": "2209597822", "code": 2110, "fclass": "hospital", "name": "Chittagong Medical College" }, "geometry": { "type": "Point", "coordinates": [ 91.8303823, 22.3606051 ] } },
{ "type": "Feature", "properties": { "osm_id": "2209597836", "code": 2110, "fclass": "hospital", "name": "Modern Diagnostic Center,OS" }, "geometry": { "type": "Point", "coordinates": [ 91.8430813, 22.3674084 ] } },
{ "type": "Feature", "properties": { "osm_id": "2209597842", "code": 2110, "fclass": "hospital", "name": "Marie Stopes Clinic" }, "geometry": { "type": "Point", "coordinates": [ 91.826521, 22.3591836 ] } },
{ "type": "Feature", "properties": { "osm_id": "2209597857", "code": 2110, "fclass": "hospital", "name": "labaid diagnostic center" }, "geometry": { "type": "Point", "coordinates": [ 91.8251425, 22.3588273 ] } },
{ "type": "Feature", "properties": { "osm_id": "2209597865", "code": 2110, "fclass": "hospital", "name": "Popular Diagnostic Center" }, "geometry": { "type": "Point", "coordinates": [ 91.8317715, 22.3609104 ] } },
{ "type": "Feature", "properties": { "osm_id": "2209597869", "code": 2110, "fclass": "hospital", "name": "Metro diagnostic center" }, "geometry": { "type": "Point", "coordinates": [ 91.8254633, 22.3583034 ] } },
{ "type": "Feature", "properties": { "osm_id": "2209597873", "code": 2110, "fclass": "hospital", "name": "Chittagong Shishu Hospital" }, "geometry": { "type": "Point", "coordinates": [ 91.8312057, 22.3610907 ] } },
{ "type": "Feature", "properties": { "osm_id": "2209597874", "code": 2110, "fclass": "hospital", "name": "লাইফ সেভ ব্লাড ব্যাংক" }, "geometry": { "type": "Point", "coordinates": [ 91.8282626, 22.3603935 ] } },
{ "type": "Feature", "properties": { "osm_id": "2210227362", "code": 2110, "fclass": "hospital", "name": "Pioneer hospital and diagnostic center Ltd." }, "geometry": { "type": "Point", "coordinates": [ 91.9079265, 22.4413749 ] } },
{ "type": "Feature", "properties": { "osm_id": "2210381424", "code": 2110, "fclass": "hospital", "name": "Appolo Diagnostic Center , OS" }, "geometry": { "type": "Point", "coordinates": [ 91.9086186, 22.4412773 ] } },
{ "type": "Feature", "properties": { "osm_id": "2210381444", "code": 2110, "fclass": "hospital", "name": "Ultra Assay Center" }, "geometry": { "type": "Point", "coordinates": [ 91.965978, 22.4589349 ] } },
{ "type": "Feature", "properties": { "osm_id": "2210381459", "code": 2110, "fclass": "hospital", "name": "Pioneer hospital And diagnostic center Ltd. , OS" }, "geometry": { "type": "Point", "coordinates": [ 91.9079269, 22.4413765 ] } },
{ "type": "Feature", "properties": { "osm_id": "2211572832", "code": 2110, "fclass": "hospital", "name": "Jemison redcrescent maternity hospital,Anderkilla" }, "geometry": { "type": "Point", "coordinates": [ 91.8374508, 22.3424373 ] } },
{ "type": "Feature", "properties": { "osm_id": "2211572833", "code": 2110, "fclass": "hospital", "name": "Jemison redcrescent maternity hospital,Anderkilla" }, "geometry": { "type": "Point", "coordinates": [ 91.8374507, 22.3424373 ] } },
{ "type": "Feature", "properties": { "osm_id": "2214704493", "code": 2110, "fclass": "hospital", "name": "Health Home Private Clinic" }, "geometry": { "type": "Point", "coordinates": [ 91.8337379, 22.3604532 ] } },
{ "type": "Feature", "properties": { "osm_id": "2214704495", "code": 2110, "fclass": "hospital", "name": "Mirror Hospital Limited." }, "geometry": { "type": "Point", "coordinates": [ 91.833258, 22.3602062 ] } },
{ "type": "Feature", "properties": { "osm_id": "2214704496", "code": 2110, "fclass": "hospital", "name": "Mohila O Sishu Hospital,OS" }, "geometry": { "type": "Point", "coordinates": [ 91.8338829, 22.3602835 ] } },
{ "type": "Feature", "properties": { "osm_id": "2214704498", "code": 2110, "fclass": "hospital", "name": "Surgiscope hospital unit 1 OS" }, "geometry": { "type": "Point", "coordinates": [ 91.8334488, 22.3604627 ] } },
{ "type": "Feature", "properties": { "osm_id": "2216627192", "code": 2110, "fclass": "hospital", "name": "Surgiscope Hospital unit 2" }, "geometry": { "type": "Point", "coordinates": [ 91.8374698, 22.3597999 ] } },
{ "type": "Feature", "properties": { "osm_id": "2216631278", "code": 2110, "fclass": "hospital", "name": "Doctor's hospital(OS)" }, "geometry": { "type": "Point", "coordinates": [ 91.8339336, 22.3651894 ] } },
{ "type": "Feature", "properties": { "osm_id": "2216636912", "code": 2110, "fclass": "hospital", "name": "CSCR storke unit" }, "geometry": { "type": "Point", "coordinates": [ 91.8305255, 22.3631377 ] } },
{ "type": "Feature", "properties": { "osm_id": "2216658624", "code": 2110, "fclass": "hospital", "name": "Checkup Diagnostic Centre" }, "geometry": { "type": "Point", "coordinates": [ 91.8289753, 22.3614483 ] } },
{ "type": "Feature", "properties": { "osm_id": "2303544093", "code": 2110, "fclass": "hospital", "name": "Islampur Upazilla Health Complex" }, "geometry": { "type": "Point", "coordinates": [ 89.7995151, 25.0780216 ] } },
{ "type": "Feature", "properties": { "osm_id": "2311234700", "code": 2110, "fclass": "hospital", "name": "Dewangonj Upazilla Health Complex" }, "geometry": { "type": "Point", "coordinates": [ 89.7589438, 25.1620877 ] } },
{ "type": "Feature", "properties": { "osm_id": "2320394258", "code": 2110, "fclass": "hospital", "name": "Samorita Hospital" }, "geometry": { "type": "Point", "coordinates": [ 90.3853287, 23.7523917 ] } },
{ "type": "Feature", "properties": { "osm_id": "2324541010", "code": 2110, "fclass": "hospital", "name": "Niramoy Clinic" }, "geometry": { "type": "Point", "coordinates": [ 91.8346561, 22.3624485 ] } },
{ "type": "Feature", "properties": { "osm_id": "2332670639", "code": 2110, "fclass": "hospital", "name": "Sherpur General Hospital" }, "geometry": { "type": "Point", "coordinates": [ 90.0245386, 25.0180855 ] } },
{ "type": "Feature", "properties": { "osm_id": "2332679000", "code": 2110, "fclass": "hospital", "name": "Bhaluka Upazillz Health Complex" }, "geometry": { "type": "Point", "coordinates": [ 90.3816307, 24.4064424 ] } },
{ "type": "Feature", "properties": { "osm_id": "2332679001", "code": 2110, "fclass": "hospital", "name": "Gafargaon Upazilla Health Complex" }, "geometry": { "type": "Point", "coordinates": [ 90.5451623, 24.462716 ] } },
{ "type": "Feature", "properties": { "osm_id": "2332679003", "code": 2110, "fclass": "hospital", "name": "Karimganj Upazilla Health Complex" }, "geometry": { "type": "Point", "coordinates": [ 90.8718753, 24.4657899 ] } },
{ "type": "Feature", "properties": { "osm_id": "2332679004", "code": 2110, "fclass": "hospital", "name": "Katiyadi Upazilla Health Complex" }, "geometry": { "type": "Point", "coordinates": [ 90.7978091, 24.2443695 ] } },
{ "type": "Feature", "properties": { "osm_id": "2332679006", "code": 2110, "fclass": "hospital", "name": "Nandail Upazilla Health Complex" }, "geometry": { "type": "Point", "coordinates": [ 90.6902107, 24.5661403 ] } },
{ "type": "Feature", "properties": { "osm_id": "2332679007", "code": 2110, "fclass": "hospital", "name": "Nikli Upazilla Health Complex" }, "geometry": { "type": "Point", "coordinates": [ 90.9336303, 24.3258926 ] } },
{ "type": "Feature", "properties": { "osm_id": "2332679008", "code": 2110, "fclass": "hospital", "name": "Pakundia Upazilla Health Complex" }, "geometry": { "type": "Point", "coordinates": [ 90.6794941, 24.3293628 ] } },
{ "type": "Feature", "properties": { "osm_id": "2332679009", "code": 2110, "fclass": "hospital", "name": "Trishal Upazilla Health Complex" }, "geometry": { "type": "Point", "coordinates": [ 90.3948003, 24.5764913 ] } },
{ "type": "Feature", "properties": { "osm_id": "2332679843", "code": 2110, "fclass": "hospital", "name": "বাসাইল উপজেলা স্বাস্থ্য কমপ্লেক্স" }, "geometry": { "type": "Point", "coordinates": [ 90.0543495, 24.22893 ] } },
{ "type": "Feature", "properties": { "osm_id": "2332679845", "code": 2110, "fclass": "hospital", "name": "Kalihati Upazilla Health Complex" }, "geometry": { "type": "Point", "coordinates": [ 89.990275, 24.3896744 ] } },
{ "type": "Feature", "properties": { "osm_id": "2332679846", "code": 2110, "fclass": "hospital", "name": "Sreepur Upazilla Health Complex" }, "geometry": { "type": "Point", "coordinates": [ 90.4785541, 24.2005371 ] } },
{ "type": "Feature", "properties": { "osm_id": "2332680744", "code": 2110, "fclass": "hospital", "name": "Bhuapur Upazilla Health Complex" }, "geometry": { "type": "Point", "coordinates": [ 89.8747048, 24.4630502 ] } },
{ "type": "Feature", "properties": { "osm_id": "2332680745", "code": 2110, "fclass": "hospital", "name": "Tangail Medical College and Hospital" }, "geometry": { "type": "Point", "coordinates": [ 89.9252633, 24.2639698 ] } },
{ "type": "Feature", "properties": { "osm_id": "2332686512", "code": 2110, "fclass": "hospital", "name": "Aminbazar union Health Center" }, "geometry": { "type": "Point", "coordinates": [ 90.327993, 23.7878589 ] } },
{ "type": "Feature", "properties": { "osm_id": "2332686513", "code": 2110, "fclass": "hospital", "name": "Dhamrai Upazilla Health Complex" }, "geometry": { "type": "Point", "coordinates": [ 90.227525, 23.9137071 ] } },
{ "type": "Feature", "properties": { "osm_id": "2332686514", "code": 2110, "fclass": "hospital", "name": "শহীদ তাজউদ্দীন আহমেদ মেডিকেল কলেজ হা" }, "geometry": { "type": "Point", "coordinates": [ 90.4248042, 23.9925472 ] } },
{ "type": "Feature", "properties": { "osm_id": "2332686515", "code": 2110, "fclass": "hospital", "name": "Ghior Upazilla Health Complex" }, "geometry": { "type": "Point", "coordinates": [ 89.877144, 23.8909213 ] } },
{ "type": "Feature", "properties": { "osm_id": "2332686517", "code": 2110, "fclass": "hospital", "name": "Nagarpur Upazilla Health Complex" }, "geometry": { "type": "Point", "coordinates": [ 89.8738267, 24.0507025 ] } },
{ "type": "Feature", "properties": { "osm_id": "2332686519", "code": 2110, "fclass": "hospital", "name": "Savar Upazilla Health Complex" }, "geometry": { "type": "Point", "coordinates": [ 90.2478719, 23.8386649 ] } },
{ "type": "Feature", "properties": { "osm_id": "2332686520", "code": 2110, "fclass": "hospital", "name": "Singair Upazilla Health Complex" }, "geometry": { "type": "Point", "coordinates": [ 90.1490043, 23.8137908 ] } },
{ "type": "Feature", "properties": { "osm_id": "2332792026", "code": 2110, "fclass": "hospital", "name": "Kurigram General Hospital" }, "geometry": { "type": "Point", "coordinates": [ 89.6451388, 25.8083678 ] } },
{ "type": "Feature", "properties": { "osm_id": "2332792027", "code": 2110, "fclass": "hospital", "name": "Sundarganj Upazila Health Complex" }, "geometry": { "type": "Point", "coordinates": [ 89.5189417, 25.564414 ] } },
{ "type": "Feature", "properties": { "osm_id": "2332802122", "code": 2110, "fclass": "hospital", "name": "Gaibandha General Hospital" }, "geometry": { "type": "Point", "coordinates": [ 89.5376381, 25.3272548 ] } },
{ "type": "Feature", "properties": { "osm_id": "2332802123", "code": 2110, "fclass": "hospital", "name": "Lalmonirhat General Hospital" }, "geometry": { "type": "Point", "coordinates": [ 89.4559009, 25.9198854 ] } },
{ "type": "Feature", "properties": { "osm_id": "2332802124", "code": 2110, "fclass": "hospital", "name": "Sadullahpur Upazila Health Complex" }, "geometry": { "type": "Point", "coordinates": [ 89.4689775, 25.3894271 ] } },
{ "type": "Feature", "properties": { "osm_id": "2332804904", "code": 2110, "fclass": "hospital", "name": "Chilmari Upazila Health Complex" }, "geometry": { "type": "Point", "coordinates": [ 89.6602718, 25.5812943 ] } },
{ "type": "Feature", "properties": { "osm_id": "2332804905", "code": 2110, "fclass": "hospital", "name": "Nawabganj Upazila Health Complex" }, "geometry": { "type": "Point", "coordinates": [ 89.0819612, 25.4180151 ] } },
{ "type": "Feature", "properties": { "osm_id": "2332856859", "code": 2110, "fclass": "hospital", "name": "" }, "geometry": { "type": "Point", "coordinates": [ 91.3039972, 25.1014026 ] } },
{ "type": "Feature", "properties": { "osm_id": "2332856864", "code": 2110, "fclass": "hospital", "name": "Char Rajibpur Upazila Health Complex" }, "geometry": { "type": "Point", "coordinates": [ 89.765778, 25.3646528 ] } },
{ "type": "Feature", "properties": { "osm_id": "2332856867", "code": 2110, "fclass": "hospital", "name": "Companygonj Upazila Health Complex" }, "geometry": { "type": "Point", "coordinates": [ 91.7554136, 25.0854567 ] } },
{ "type": "Feature", "properties": { "osm_id": "2332856875", "code": 2110, "fclass": "hospital", "name": "Dhobaura Upazila Health Complex" }, "geometry": { "type": "Point", "coordinates": [ 90.5134661, 25.090095 ] } },
{ "type": "Feature", "properties": { "osm_id": "2332856879", "code": 2110, "fclass": "hospital", "name": "Dowarbazar Upazila Health Complex" }, "geometry": { "type": "Point", "coordinates": [ 91.5678367, 25.0429618 ] } },
{ "type": "Feature", "properties": { "osm_id": "2332856882", "code": 2110, "fclass": "hospital", "name": "Durgapur Upazila Health Complex" }, "geometry": { "type": "Point", "coordinates": [ 90.6780243, 25.1279521 ] } },
{ "type": "Feature", "properties": { "osm_id": "2332856889", "code": 2110, "fclass": "hospital", "name": "Haluaghat Upazila Health Complex" }, "geometry": { "type": "Point", "coordinates": [ 90.3387211, 25.1179719 ] } },
{ "type": "Feature", "properties": { "osm_id": "2332856892", "code": 2110, "fclass": "hospital", "name": "Jaintapur Upazila Health Complex" }, "geometry": { "type": "Point", "coordinates": [ 92.1265808, 25.1361745 ] } },
{ "type": "Feature", "properties": { "osm_id": "2332856895", "code": 2110, "fclass": "hospital", "name": "উপজেলা স্বাস্থ্য কমপ্লেক্স, ঝিনাইগাত" }, "geometry": { "type": "Point", "coordinates": [ 90.0659935, 25.182485 ] } },
{ "type": "Feature", "properties": { "osm_id": "2332856898", "code": 2110, "fclass": "hospital", "name": "Kalmakanda Upazila Health Complex" }, "geometry": { "type": "Point", "coordinates": [ 90.8931413, 25.074178 ] } },
{ "type": "Feature", "properties": { "osm_id": "2332856901", "code": 2110, "fclass": "hospital", "name": "Kanaighat Upazila Health Complex" }, "geometry": { "type": "Point", "coordinates": [ 92.2558595, 25.0120631 ] } },
{ "type": "Feature", "properties": { "osm_id": "2332856904", "code": 2110, "fclass": "hospital", "name": "Madarganj Upazila Health Complex" }, "geometry": { "type": "Point", "coordinates": [ 89.7173658, 24.8937936 ] } },
{ "type": "Feature", "properties": { "osm_id": "2332856909", "code": 2110, "fclass": "hospital", "name": "Nalitabari Upazila Health Complex" }, "geometry": { "type": "Point", "coordinates": [ 90.188886, 25.0934153 ] } },
{ "type": "Feature", "properties": { "osm_id": "2332856912", "code": 2110, "fclass": "hospital", "name": "Phulpur Upazila Health Complex" }, "geometry": { "type": "Point", "coordinates": [ 90.3648299, 24.9484441 ] } },
{ "type": "Feature", "properties": { "osm_id": "2332856918", "code": 2110, "fclass": "hospital", "name": "Saghatta Upazila Health Complex" }, "geometry": { "type": "Point", "coordinates": [ 89.581814, 25.1130044 ] } },
{ "type": "Feature", "properties": { "osm_id": "2332856922", "code": 2110, "fclass": "hospital", "name": "Sariakandi Upazila Health Complex" }, "geometry": { "type": "Point", "coordinates": [ 89.5740239, 24.8940962 ] } },
{ "type": "Feature", "properties": { "osm_id": "2332856927", "code": 2110, "fclass": "hospital", "name": "Sunamganj General Hospital" }, "geometry": { "type": "Point", "coordinates": [ 91.410647, 25.0651231 ] } },
{ "type": "Feature", "properties": { "osm_id": "2332856931", "code": 2110, "fclass": "hospital", "name": "Tahirpur Upazila Health Complex" }, "geometry": { "type": "Point", "coordinates": [ 91.1854831, 25.0979172 ] } },
{ "type": "Feature", "properties": { "osm_id": "2332872326", "code": 2110, "fclass": "hospital", "name": "Barlekha Upazila Health Complex" }, "geometry": { "type": "Point", "coordinates": [ 92.184857, 24.6938788 ] } },
{ "type": "Feature", "properties": { "osm_id": "2332872329", "code": 2110, "fclass": "hospital", "name": "বিশ্বনাথ উপজেলা স্বাস্থ্য কমপ্লেক্স" }, "geometry": { "type": "Point", "coordinates": [ 91.7257035, 24.8405595 ] } },
{ "type": "Feature", "properties": { "osm_id": "2332872335", "code": 2110, "fclass": "hospital", "name": "Golabganj Upazila Health Complex" }, "geometry": { "type": "Point", "coordinates": [ 92.0291639, 24.8321257 ] } },
{ "type": "Feature", "properties": { "osm_id": "2332872337", "code": 2110, "fclass": "hospital", "name": "Jagannathpur Upazila Health Complex" }, "geometry": { "type": "Point", "coordinates": [ 91.5631588, 24.7794347 ] } },
{ "type": "Feature", "properties": { "osm_id": "2332872340", "code": 2110, "fclass": "hospital", "name": "Zakiganj Upazila Health Complex" }, "geometry": { "type": "Point", "coordinates": [ 92.3642292, 24.8842777 ] } },
{ "type": "Feature", "properties": { "osm_id": "2332872344", "code": 2110, "fclass": "hospital", "name": "Jamalganj Upazila Health Complex" }, "geometry": { "type": "Point", "coordinates": [ 91.2356038, 24.9987899 ] } },
{ "type": "Feature", "properties": { "osm_id": "2332872347", "code": 2110, "fclass": "hospital", "name": "Mohanganj Upazila Health Complex" }, "geometry": { "type": "Point", "coordinates": [ 90.9820953, 24.8792089 ] } },
{ "type": "Feature", "properties": { "osm_id": "2332892994", "code": 2110, "fclass": "hospital", "name": "Ajmiriganj Upazila Health Complex" }, "geometry": { "type": "Point", "coordinates": [ 91.2355889, 24.5515794 ] } },
{ "type": "Feature", "properties": { "osm_id": "2332892995", "code": 2110, "fclass": "hospital", "name": "বানিয়াচং ঊপজেলা স্বাস্থ্য কমপ্লেক্স" }, "geometry": { "type": "Point", "coordinates": [ 91.363971, 24.5043956 ] } },
{ "type": "Feature", "properties": { "osm_id": "2332892996", "code": 2110, "fclass": "hospital", "name": "Habiganj General Hospital" }, "geometry": { "type": "Point", "coordinates": [ 91.4176425, 24.3735429 ] } },
{ "type": "Feature", "properties": { "osm_id": "2332892997", "code": 2110, "fclass": "hospital", "name": "Kamalganj Upazila Health Complex" }, "geometry": { "type": "Point", "coordinates": [ 91.8570806, 24.3659437 ] } },
{ "type": "Feature", "properties": { "osm_id": "2332892998", "code": 2110, "fclass": "hospital", "name": "Kulaura Upazila Health Complex" }, "geometry": { "type": "Point", "coordinates": [ 92.0384991, 24.5279662 ] } },
{ "type": "Feature", "properties": { "osm_id": "2332892999", "code": 2110, "fclass": "hospital", "name": "Moulvibaza Sadar Hospital" }, "geometry": { "type": "Point", "coordinates": [ 91.7662744, 24.4811474 ] } },
{ "type": "Feature", "properties": { "osm_id": "2332893000", "code": 2110, "fclass": "hospital", "name": "Rajanagar Upazila Health Complex" }, "geometry": { "type": "Point", "coordinates": [ 91.8529606, 24.5277418 ] } },
{ "type": "Feature", "properties": { "osm_id": "2332919089", "code": 2110, "fclass": "hospital", "name": "Nasirnagar Upazila Health Complex" }, "geometry": { "type": "Point", "coordinates": [ 91.1962986, 24.1940443 ] } },
{ "type": "Feature", "properties": { "osm_id": "2332919090", "code": 2110, "fclass": "hospital", "name": "Sreemangal Upazila Health Complex" }, "geometry": { "type": "Point", "coordinates": [ 91.7364249, 24.300898 ] } },
{ "type": "Feature", "properties": { "osm_id": "2333045235", "code": 2110, "fclass": "hospital", "name": "Police Lines Hospital" }, "geometry": { "type": "Point", "coordinates": [ 91.8214225, 22.3524199 ] } },
{ "type": "Feature", "properties": { "osm_id": "2333151683", "code": 2110, "fclass": "hospital", "name": "Brahmanbaria General Hospital" }, "geometry": { "type": "Point", "coordinates": [ 91.111005, 23.9764611 ] } },
{ "type": "Feature", "properties": { "osm_id": "2333151684", "code": 2110, "fclass": "hospital", "name": "Madhabpur Upazila Health Complex" }, "geometry": { "type": "Point", "coordinates": [ 91.2875089, 24.0971494 ] } },
{ "type": "Feature", "properties": { "osm_id": "2333164527", "code": 2110, "fclass": "hospital", "name": "Akhaura Upazila Health Complex" }, "geometry": { "type": "Point", "coordinates": [ 91.203273, 23.8645379 ] } },
{ "type": "Feature", "properties": { "osm_id": "2333164528", "code": 2110, "fclass": "hospital", "name": "Bancharampur Upazila Health Complex" }, "geometry": { "type": "Point", "coordinates": [ 90.8021663, 23.7720763 ] } },
{ "type": "Feature", "properties": { "osm_id": "2333164530", "code": 2110, "fclass": "hospital", "name": "Brahmanpara Upazila Health Complex" }, "geometry": { "type": "Point", "coordinates": [ 91.0941092, 23.6137621 ] } },
{ "type": "Feature", "properties": { "osm_id": "2333164531", "code": 2110, "fclass": "hospital", "name": "Burichang Upazila Health Complex" }, "geometry": { "type": "Point", "coordinates": [ 91.1271728, 23.5572321 ] } },
{ "type": "Feature", "properties": { "osm_id": "2333164532", "code": 2110, "fclass": "hospital", "name": "Chandina Upazila Health Complex" }, "geometry": { "type": "Point", "coordinates": [ 90.9971327, 23.4875327 ] } },
{ "type": "Feature", "properties": { "osm_id": "2333164533", "code": 2110, "fclass": "hospital", "name": "Comilla General Hospital" }, "geometry": { "type": "Point", "coordinates": [ 91.1816815, 23.4553504 ] } },
{ "type": "Feature", "properties": { "osm_id": "2333164534", "code": 2110, "fclass": "hospital", "name": "Comilla Medical College Hospital" }, "geometry": { "type": "Point", "coordinates": [ 91.2022664, 23.4515975 ] } },
{ "type": "Feature", "properties": { "osm_id": "2333164535", "code": 2110, "fclass": "hospital", "name": "Debidwar Upazila Health Complex" }, "geometry": { "type": "Point", "coordinates": [ 90.9872413, 23.6041875 ] } },
{ "type": "Feature", "properties": { "osm_id": "2333164536", "code": 2110, "fclass": "hospital", "name": "Homna Upazila Health Complex" }, "geometry": { "type": "Point", "coordinates": [ 90.7823232, 23.6815145 ] } },
{ "type": "Feature", "properties": { "osm_id": "2333164537", "code": 2110, "fclass": "hospital", "name": "Kachua Upazila Health Complex" }, "geometry": { "type": "Point", "coordinates": [ 90.8894731, 23.3410847 ] } },
{ "type": "Feature", "properties": { "osm_id": "2333164538", "code": 2110, "fclass": "hospital", "name": "Muradnagar Upazila Health Complex" }, "geometry": { "type": "Point", "coordinates": [ 90.9315645, 23.6403549 ] } },
{ "type": "Feature", "properties": { "osm_id": "2333176629", "code": 2110, "fclass": "hospital", "name": "Chagalnaiya Upazila Health Complex" }, "geometry": { "type": "Point", "coordinates": [ 91.5166759, 23.0382598 ] } },
{ "type": "Feature", "properties": { "osm_id": "2333176631", "code": 2110, "fclass": "hospital", "name": "Feni General Hospital" }, "geometry": { "type": "Point", "coordinates": [ 91.4053964, 23.0300437 ] } },
{ "type": "Feature", "properties": { "osm_id": "2333176632", "code": 2110, "fclass": "hospital", "name": "Parshuram Upazila Health Complex" }, "geometry": { "type": "Point", "coordinates": [ 91.4447134, 23.2107104 ] } },
{ "type": "Feature", "properties": { "osm_id": "2334074205", "code": 2110, "fclass": "hospital", "name": "দাগনভূঁইয়া উপজেলা স্বাস্থ্য কমপ্লে" }, "geometry": { "type": "Point", "coordinates": [ 91.3104378, 22.938362 ] } },
{ "type": "Feature", "properties": { "osm_id": "2334074206", "code": 2110, "fclass": "hospital", "name": "Senbagh Upazila Health Complex" }, "geometry": { "type": "Point", "coordinates": [ 91.2327521, 22.9956182 ] } },
{ "type": "Feature", "properties": { "osm_id": "2339088931", "code": 2110, "fclass": "hospital", "name": "Menon Hospital" }, "geometry": { "type": "Point", "coordinates": [ 91.8320131, 22.3313997 ] } },
{ "type": "Feature", "properties": { "osm_id": "2340250459", "code": 2110, "fclass": "hospital", "name": "Nawabi" }, "geometry": { "type": "Point", "coordinates": [ 91.8114567, 22.3277277 ] } },
{ "type": "Feature", "properties": { "osm_id": "2342005239", "code": 2110, "fclass": "hospital", "name": "Ekushe Hospital" }, "geometry": { "type": "Point", "coordinates": [ 91.833482, 22.3661028 ] } },
{ "type": "Feature", "properties": { "osm_id": "2343341315", "code": 2110, "fclass": "hospital", "name": "Begumganj Upazila Health Complex" }, "geometry": { "type": "Point", "coordinates": [ 91.0952915, 23.0025372 ] } },
{ "type": "Feature", "properties": { "osm_id": "2343344186", "code": 2110, "fclass": "hospital", "name": "Bhola General Hospital" }, "geometry": { "type": "Point", "coordinates": [ 90.6551902, 22.6763677 ] } },
{ "type": "Feature", "properties": { "osm_id": "2343344187", "code": 2110, "fclass": "hospital", "name": "Burhanuddin Upazila Health Complex" }, "geometry": { "type": "Point", "coordinates": [ 90.7192273, 22.496529 ] } },
{ "type": "Feature", "properties": { "osm_id": "2343344188", "code": 2110, "fclass": "hospital", "name": "Charfasson Upazila Health Complex" }, "geometry": { "type": "Point", "coordinates": [ 90.7628896, 22.184 ] } },
{ "type": "Feature", "properties": { "osm_id": "2343344189", "code": 2110, "fclass": "hospital", "name": "Chatkhil Upazila Health Complex" }, "geometry": { "type": "Point", "coordinates": [ 90.969302, 23.0601569 ] } },
{ "type": "Feature", "properties": { "osm_id": "2343344191", "code": 2110, "fclass": "hospital", "name": "Galachipa Upazila Health Complex" }, "geometry": { "type": "Point", "coordinates": [ 90.4194581, 22.1659773 ] } },
{ "type": "Feature", "properties": { "osm_id": "2343344192", "code": 2110, "fclass": "hospital", "name": "হাতিয়া উপজেলা স্বাস্থ্য কমপ্লেক্স" }, "geometry": { "type": "Point", "coordinates": [ 91.1416066, 22.2881156 ] } },
{ "type": "Feature", "properties": { "osm_id": "2343344193", "code": 2110, "fclass": "hospital", "name": "Lakshmipur Upazila Health Complex" }, "geometry": { "type": "Point", "coordinates": [ 90.8326514, 22.9344195 ] } },
{ "type": "Feature", "properties": { "osm_id": "2343344194", "code": 2110, "fclass": "hospital", "name": "Lalmohan Upazila Health Complex" }, "geometry": { "type": "Point", "coordinates": [ 90.734469, 22.3463171 ] } },
{ "type": "Feature", "properties": { "osm_id": "2343344195", "code": 2110, "fclass": "hospital", "name": "Manpura Upazila Health Complex" }, "geometry": { "type": "Point", "coordinates": [ 90.9666387, 22.2580014 ] } },
{ "type": "Feature", "properties": { "osm_id": "2343347180", "code": 2110, "fclass": "hospital", "name": "Amtali Upazila Health Complex" }, "geometry": { "type": "Point", "coordinates": [ 90.2302356, 22.1306405 ] } },
{ "type": "Feature", "properties": { "osm_id": "2343347181", "code": 2110, "fclass": "hospital", "name": "Barguna General Hospital" }, "geometry": { "type": "Point", "coordinates": [ 90.1279307, 22.1563767 ] } },
{ "type": "Feature", "properties": { "osm_id": "2343347182", "code": 2110, "fclass": "hospital", "name": "Betagi Upazila Health Complex" }, "geometry": { "type": "Point", "coordinates": [ 90.1601989, 22.4135824 ] } },
{ "type": "Feature", "properties": { "osm_id": "2343347183", "code": 2110, "fclass": "hospital", "name": "Bhandaria Upazila Health Complex" }, "geometry": { "type": "Point", "coordinates": [ 90.0587864, 22.489815 ] } },
{ "type": "Feature", "properties": { "osm_id": "2343347184", "code": 2110, "fclass": "hospital", "name": "Kalapara Upazila Health Complex" }, "geometry": { "type": "Point", "coordinates": [ 90.2177764, 21.9877672 ] } },
{ "type": "Feature", "properties": { "osm_id": "2343347185", "code": 2110, "fclass": "hospital", "name": "Mathbaria Upazila Health Complex" }, "geometry": { "type": "Point", "coordinates": [ 89.9534843, 22.2861 ] } },
{ "type": "Feature", "properties": { "osm_id": "2343347186", "code": 2110, "fclass": "hospital", "name": "Mirzaganj Upazila Health Complex" }, "geometry": { "type": "Point", "coordinates": [ 90.2168278, 22.3598627 ] } },
{ "type": "Feature", "properties": { "osm_id": "2343347187", "code": 2110, "fclass": "hospital", "name": "Patharghata Upazila Health Complex" }, "geometry": { "type": "Point", "coordinates": [ 89.9659097, 22.0326459 ] } },
{ "type": "Feature", "properties": { "osm_id": "2343347189", "code": 2110, "fclass": "hospital", "name": "Sharankhola Upazila Health Complex" }, "geometry": { "type": "Point", "coordinates": [ 89.8501541, 22.3128592 ] } },
{ "type": "Feature", "properties": { "osm_id": "2343351848", "code": 2110, "fclass": "hospital", "name": "bagerhat sarad hospital" }, "geometry": { "type": "Point", "coordinates": [ 89.7885648, 22.6679542 ] } },
{ "type": "Feature", "properties": { "osm_id": "2343351854", "code": 2110, "fclass": "hospital", "name": "Chitalmari Upazila Health Complex" }, "geometry": { "type": "Point", "coordinates": [ 89.8719259, 22.7953508 ] } },
{ "type": "Feature", "properties": { "osm_id": "2343351858", "code": 2110, "fclass": "hospital", "name": "Dacope Upazila Health Complex" }, "geometry": { "type": "Point", "coordinates": [ 89.5177706, 22.5998477 ] } },
{ "type": "Feature", "properties": { "osm_id": "2343351862", "code": 2110, "fclass": "hospital", "name": "Fakirhat Upazila Health Complex" }, "geometry": { "type": "Point", "coordinates": [ 89.7005198, 22.7775291 ] } },
{ "type": "Feature", "properties": { "osm_id": "2343351870", "code": 2110, "fclass": "hospital", "name": "Kaliganj Upazila Health Complex" }, "geometry": { "type": "Point", "coordinates": [ 89.0248954, 22.4639038 ] } },
{ "type": "Feature", "properties": { "osm_id": "2343351880", "code": 2110, "fclass": "hospital", "name": "Mangla Upazila Health Complex" }, "geometry": { "type": "Point", "coordinates": [ 89.6175708, 22.4732356 ] } },
{ "type": "Feature", "properties": { "osm_id": "2343351884", "code": 2110, "fclass": "hospital", "name": "Pirozpur General Hospital" }, "geometry": { "type": "Point", "coordinates": [ 89.9764492, 22.5783 ] } },
{ "type": "Feature", "properties": { "osm_id": "2343351888", "code": 2110, "fclass": "hospital", "name": "Rajapur Upazila Health Complex" }, "geometry": { "type": "Point", "coordinates": [ 90.1333414, 22.5689836 ] } },
{ "type": "Feature", "properties": { "osm_id": "2343351923", "code": 2110, "fclass": "hospital", "name": "Shymnagar Upazila Health Complex" }, "geometry": { "type": "Point", "coordinates": [ 89.1026876, 22.3439009 ] } },
{ "type": "Feature", "properties": { "osm_id": "2343353773", "code": 2110, "fclass": "hospital", "name": "বরিশাল জেনারেল হাসপাতাল" }, "geometry": { "type": "Point", "coordinates": [ 90.3706234, 22.7088499 ] } },
{ "type": "Feature", "properties": { "osm_id": "2343353777", "code": 2110, "fclass": "hospital", "name": "Mehendiganj Upazila Health Complex" }, "geometry": { "type": "Point", "coordinates": [ 90.5278747, 22.8266259 ] } },
{ "type": "Feature", "properties": { "osm_id": "2343353784", "code": 2110, "fclass": "hospital", "name": "Wazipur Upazila Health Complex" }, "geometry": { "type": "Point", "coordinates": [ 90.2517148, 22.8274012 ] } },
{ "type": "Feature", "properties": { "osm_id": "2343354456", "code": 2110, "fclass": "hospital", "name": "Lab Aid Hospital" }, "geometry": { "type": "Point", "coordinates": [ 90.4128239, 23.7940859 ] } },
{ "type": "Feature", "properties": { "osm_id": "2343395370", "code": 2110, "fclass": "hospital", "name": "Agailjhara Upazila Health Complex" }, "geometry": { "type": "Point", "coordinates": [ 90.1825251, 22.9636166 ] } },
{ "type": "Feature", "properties": { "osm_id": "2343395379", "code": 2110, "fclass": "hospital", "name": "Batiaghata Upazila Health Complex" }, "geometry": { "type": "Point", "coordinates": [ 89.5144786, 22.7385303 ] } },
{ "type": "Feature", "properties": { "osm_id": "2343395385", "code": 2110, "fclass": "hospital", "name": "Dumuria Upazila Health Complex" }, "geometry": { "type": "Point", "coordinates": [ 89.4105622, 22.8099927 ] } },
{ "type": "Feature", "properties": { "osm_id": "2343395395", "code": 2110, "fclass": "hospital", "name": "Gournadi Upazila Health Complex" }, "geometry": { "type": "Point", "coordinates": [ 90.2267735, 22.9629213 ] } },
{ "type": "Feature", "properties": { "osm_id": "2343395400", "code": 2110, "fclass": "hospital", "name": "Kalaroa Upazila Health Complex" }, "geometry": { "type": "Point", "coordinates": [ 89.0359397, 22.8605568 ] } },
{ "type": "Feature", "properties": { "osm_id": "2343395420", "code": 2110, "fclass": "hospital", "name": "Kotalipara Upazila Health Complex" }, "geometry": { "type": "Point", "coordinates": [ 90.0049273, 22.9872531 ] } },
{ "type": "Feature", "properties": { "osm_id": "2343395424", "code": 2110, "fclass": "hospital", "name": "Mollahat Upazila Health Complex" }, "geometry": { "type": "Point", "coordinates": [ 89.8010799, 22.9280408 ] } },
{ "type": "Feature", "properties": { "osm_id": "2343395429", "code": 2110, "fclass": "hospital", "name": "Raipur Upazila Health Complex" }, "geometry": { "type": "Point", "coordinates": [ 90.7652993, 23.0318733 ] } },
{ "type": "Feature", "properties": { "osm_id": "2343395441", "code": 2110, "fclass": "hospital", "name": "Tala Upazila Health Complex" }, "geometry": { "type": "Point", "coordinates": [ 89.2591267, 22.7524226 ] } },
{ "type": "Feature", "properties": { "osm_id": "2343395447", "code": 2110, "fclass": "hospital", "name": "Terokhada Upazila Health Complex" }, "geometry": { "type": "Point", "coordinates": [ 89.6728479, 22.9281896 ] } },
{ "type": "Feature", "properties": { "osm_id": "2343395452", "code": 2110, "fclass": "hospital", "name": "Tuberculosis Hospital Khulna" }, "geometry": { "type": "Point", "coordinates": [ 89.517012, 22.8981361 ] } },
{ "type": "Feature", "properties": { "osm_id": "2343395458", "code": 2110, "fclass": "hospital", "name": "Tungipara Upazila Health Complex" }, "geometry": { "type": "Point", "coordinates": [ 89.8890717, 22.8938108 ] } },
{ "type": "Feature", "properties": { "osm_id": "2343411488", "code": 2110, "fclass": "hospital", "name": "Bagherpara Upazila Health Complex" }, "geometry": { "type": "Point", "coordinates": [ 89.344068, 23.2201316 ] } },
{ "type": "Feature", "properties": { "osm_id": "2343411498", "code": 2110, "fclass": "hospital", "name": "Jessore 250 bed General Hospital" }, "geometry": { "type": "Point", "coordinates": [ 89.2090257, 23.1689124 ] } },
{ "type": "Feature", "properties": { "osm_id": "2343411509", "code": 2110, "fclass": "hospital", "name": "Jhikorgacha Upazila Health Complex" }, "geometry": { "type": "Point", "coordinates": [ 89.1090706, 23.1052437 ] } },
{ "type": "Feature", "properties": { "osm_id": "2343411521", "code": 2110, "fclass": "hospital", "name": "Kalkini Upazila Health Complex" }, "geometry": { "type": "Point", "coordinates": [ 90.2292064, 23.0751001 ] } },
{ "type": "Feature", "properties": { "osm_id": "2343411530", "code": 2110, "fclass": "hospital", "name": "Manirampur Upazila Health Complex" }, "geometry": { "type": "Point", "coordinates": [ 89.2354315, 23.0091121 ] } },
{ "type": "Feature", "properties": { "osm_id": "2343411551", "code": 2110, "fclass": "hospital", "name": "Narail General Hospital" }, "geometry": { "type": "Point", "coordinates": [ 89.499297, 23.1721885 ] } },
{ "type": "Feature", "properties": { "osm_id": "2343417351", "code": 2110, "fclass": "hospital", "name": "Faridganj Upazila Health Complex" }, "geometry": { "type": "Point", "coordinates": [ 90.7418619, 23.1333745 ] } },
{ "type": "Feature", "properties": { "osm_id": "2343417352", "code": 2110, "fclass": "hospital", "name": "Gopinathpur Union Health Complex" }, "geometry": { "type": "Point", "coordinates": [ 89.7569937, 23.1021398 ] } },
{ "type": "Feature", "properties": { "osm_id": "2343417353", "code": 2110, "fclass": "hospital", "name": "Goshairhat Upazila Health Complex" }, "geometry": { "type": "Point", "coordinates": [ 90.4289939, 23.0796825 ] } },
{ "type": "Feature", "properties": { "osm_id": "2343417354", "code": 2110, "fclass": "hospital", "name": "Haimchar Upazila Health Complex" }, "geometry": { "type": "Point", "coordinates": [ 90.662077, 23.0950908 ] } },
{ "type": "Feature", "properties": { "osm_id": "2343417355", "code": 2110, "fclass": "hospital", "name": "Kashiani Upazila Health Complex" }, "geometry": { "type": "Point", "coordinates": [ 89.718635, 23.2423634 ] } },
{ "type": "Feature", "properties": { "osm_id": "2343417356", "code": 2110, "fclass": "hospital", "name": "Lohagara Upazila Health Complex" }, "geometry": { "type": "Point", "coordinates": [ 89.6476117, 23.1840993 ] } },
{ "type": "Feature", "properties": { "osm_id": "2343417357", "code": 2110, "fclass": "hospital", "name": "Madaripur Sadar Hospital মাদারীপুর সদর হাসপাতাল" }, "geometry": { "type": "Point", "coordinates": [ 90.2117735, 23.1654132 ] } },
{ "type": "Feature", "properties": { "osm_id": "2343417358", "code": 2110, "fclass": "hospital", "name": "Rajoir Upazila Health Complex" }, "geometry": { "type": "Point", "coordinates": [ 90.0478776, 23.2095082 ] } },
{ "type": "Feature", "properties": { "osm_id": "2344153960", "code": 2110, "fclass": "hospital", "name": "Muksudpur Upazila Health Complex" }, "geometry": { "type": "Point", "coordinates": [ 89.8721499, 23.3192131 ] } },
{ "type": "Feature", "properties": { "osm_id": "2344153961", "code": 2110, "fclass": "hospital", "name": "Shibchar Upazila Health Complex" }, "geometry": { "type": "Point", "coordinates": [ 90.1705933, 23.3431051 ] } },
{ "type": "Feature", "properties": { "osm_id": "2344153962", "code": 2110, "fclass": "hospital", "name": "Zanjira Upazila Health Complex" }, "geometry": { "type": "Point", "coordinates": [ 90.6232171, 22.9109195 ] } },
{ "type": "Feature", "properties": { "osm_id": "2344153964", "code": 2110, "fclass": "hospital", "name": "Bhanga Upazila Health Complex" }, "geometry": { "type": "Point", "coordinates": [ 89.9800209, 23.3821523 ] } },
{ "type": "Feature", "properties": { "osm_id": "2344154059", "code": 2110, "fclass": "hospital", "name": "Bhedarganj Upazila Health Complex" }, "geometry": { "type": "Point", "coordinates": [ 90.447782, 23.1988139 ] } },
{ "type": "Feature", "properties": { "osm_id": "2344154060", "code": 2110, "fclass": "hospital", "name": "Naria Upazila Health Complex" }, "geometry": { "type": "Point", "coordinates": [ 90.4285328, 23.3085294 ] } },
{ "type": "Feature", "properties": { "osm_id": "2344154848", "code": 2110, "fclass": "hospital", "name": "Boalmari Upazila Health Complex" }, "geometry": { "type": "Point", "coordinates": [ 89.6848321, 23.3927365 ] } },
{ "type": "Feature", "properties": { "osm_id": "2344154849", "code": 2110, "fclass": "hospital", "name": "Kaliganj Upazila Health Complex" }, "geometry": { "type": "Point", "coordinates": [ 89.142871, 23.4033153 ] } },
{ "type": "Feature", "properties": { "osm_id": "2344154850", "code": 2110, "fclass": "hospital", "name": "Magura General Hospital" }, "geometry": { "type": "Point", "coordinates": [ 89.4217504, 23.4863527 ] } },
{ "type": "Feature", "properties": { "osm_id": "2344158198", "code": 2110, "fclass": "hospital", "name": "Kotchandpur Upazila Health Complex" }, "geometry": { "type": "Point", "coordinates": [ 89.0054199, 23.411486 ] } },
{ "type": "Feature", "properties": { "osm_id": "2344158202", "code": 2110, "fclass": "hospital", "name": "Madhukhali Upazila Health Complex" }, "geometry": { "type": "Point", "coordinates": [ 89.6295835, 23.5447204 ] } },
{ "type": "Feature", "properties": { "osm_id": "2344160641", "code": 2110, "fclass": "hospital", "name": "Chuadanga General Hospital" }, "geometry": { "type": "Point", "coordinates": [ 88.8473986, 23.6356794 ] } },
{ "type": "Feature", "properties": { "osm_id": "2344160642", "code": 2110, "fclass": "hospital", "name": "Damurhuda Upazila Health Complex" }, "geometry": { "type": "Point", "coordinates": [ 88.7627066, 23.6142025 ] } },
{ "type": "Feature", "properties": { "osm_id": "2344160643", "code": 2110, "fclass": "hospital", "name": "Hariakunda Upazila Health Complex" }, "geometry": { "type": "Point", "coordinates": [ 89.0437351, 23.6498504 ] } },
{ "type": "Feature", "properties": { "osm_id": "2344312573", "code": 2110, "fclass": "hospital", "name": "Meherpur General Hospital" }, "geometry": { "type": "Point", "coordinates": [ 88.6420993, 23.7779628 ] } },
{ "type": "Feature", "properties": { "osm_id": "2344313632", "code": 2110, "fclass": "hospital", "name": "Gangni Upazila Health Complex" }, "geometry": { "type": "Point", "coordinates": [ 88.7444092, 23.8162206 ] } },
{ "type": "Feature", "properties": { "osm_id": "2344314708", "code": 2110, "fclass": "hospital", "name": "Daulatpur Upazila Health Complex" }, "geometry": { "type": "Point", "coordinates": [ 88.8731064, 24.0006974 ] } },
{ "type": "Feature", "properties": { "osm_id": "2344447490", "code": 2110, "fclass": "hospital", "name": "Baliakandi Upazila Health Complex" }, "geometry": { "type": "Point", "coordinates": [ 89.548978, 23.6320113 ] } },
{ "type": "Feature", "properties": { "osm_id": "2344447494", "code": 2110, "fclass": "hospital", "name": "Ishwardi Upazila Health Complex" }, "geometry": { "type": "Point", "coordinates": [ 89.0715238, 24.1273814 ] } },
{ "type": "Feature", "properties": { "osm_id": "2344447497", "code": 2110, "fclass": "hospital", "name": "Khoksha Upazila Health Complex" }, "geometry": { "type": "Point", "coordinates": [ 89.288611, 23.8105835 ] } },
{ "type": "Feature", "properties": { "osm_id": "2344447502", "code": 2110, "fclass": "hospital", "name": "Kumarkhali Upazila Health Complex" }, "geometry": { "type": "Point", "coordinates": [ 89.2367708, 23.8595981 ] } },
{ "type": "Feature", "properties": { "osm_id": "2344447507", "code": 2110, "fclass": "hospital", "name": "Lalpur Upazila Health Complex" }, "geometry": { "type": "Point", "coordinates": [ 88.9620062, 24.1768408 ] } },
{ "type": "Feature", "properties": { "osm_id": "2344447512", "code": 2110, "fclass": "hospital", "name": "Pangsha Upazila Health Complex" }, "geometry": { "type": "Point", "coordinates": [ 89.425505, 23.7909362 ] } },
{ "type": "Feature", "properties": { "osm_id": "2344447518", "code": 2110, "fclass": "hospital", "name": "Shailkupa Upazila Health Complex" }, "geometry": { "type": "Point", "coordinates": [ 89.2452986, 23.6818924 ] } },
{ "type": "Feature", "properties": { "osm_id": "2344447969", "code": 2110, "fclass": "hospital", "name": "Charghat Upazila Health Complex" }, "geometry": { "type": "Point", "coordinates": [ 88.7544322, 24.2815556 ] } },
{ "type": "Feature", "properties": { "osm_id": "2344448874", "code": 2110, "fclass": "hospital", "name": "Tuberculosis Hospital Rajshahi" }, "geometry": { "type": "Point", "coordinates": [ 88.5820023, 24.3767363 ] } },
{ "type": "Feature", "properties": { "osm_id": "2344450874", "code": 2110, "fclass": "hospital", "name": "Bandar Upazila Health Complex" }, "geometry": { "type": "Point", "coordinates": [ 90.5251277, 23.6294025 ] } },
{ "type": "Feature", "properties": { "osm_id": "2344451137", "code": 2110, "fclass": "hospital", "name": "Sreenagar Upazila Health Complex" }, "geometry": { "type": "Point", "coordinates": [ 90.2901956, 23.5501275 ] } },
{ "type": "Feature", "properties": { "osm_id": "2344452078", "code": 2110, "fclass": "hospital", "name": "Sujanagar Upazila Health Complex" }, "geometry": { "type": "Point", "coordinates": [ 89.4095874, 23.9386038 ] } },
{ "type": "Feature", "properties": { "osm_id": "2344452177", "code": 2110, "fclass": "hospital", "name": "Bhangura Upazila Health Complex" }, "geometry": { "type": "Point", "coordinates": [ 89.3911297, 24.2189873 ] } },
{ "type": "Feature", "properties": { "osm_id": "2344452178", "code": 2110, "fclass": "hospital", "name": "FaridpurUpazila Health Complex" }, "geometry": { "type": "Point", "coordinates": [ 89.457109, 24.1607052 ] } },
{ "type": "Feature", "properties": { "osm_id": "2344452476", "code": 2110, "fclass": "hospital", "name": "Chatmohar Upazila Health Complex" }, "geometry": { "type": "Point", "coordinates": [ 89.2868106, 24.2329754 ] } },
{ "type": "Feature", "properties": { "osm_id": "2344453138", "code": 2110, "fclass": "hospital", "name": "Natore General Hospital" }, "geometry": { "type": "Point", "coordinates": [ 88.9834983, 24.4098391 ] } },
{ "type": "Feature", "properties": { "osm_id": "2344453917", "code": 2110, "fclass": "hospital", "name": "Godagari Upazila Health Complex" }, "geometry": { "type": "Point", "coordinates": [ 88.3239856, 24.4737703 ] } },
{ "type": "Feature", "properties": { "osm_id": "2344454633", "code": 2110, "fclass": "hospital", "name": "Chapai Nawabganj General Hospital" }, "geometry": { "type": "Point", "coordinates": [ 88.2654598, 24.5978494 ] } },
{ "type": "Feature", "properties": { "osm_id": "2344456527", "code": 2110, "fclass": "hospital", "name": "Nachole Upazila Health Complex" }, "geometry": { "type": "Point", "coordinates": [ 88.4174943, 24.7347879 ] } },
{ "type": "Feature", "properties": { "osm_id": "2344457241", "code": 2110, "fclass": "hospital", "name": "Shibganj Upazila Health Complex" }, "geometry": { "type": "Point", "coordinates": [ 88.1600351, 24.6886618 ] } },
{ "type": "Feature", "properties": { "osm_id": "2349376157", "code": 2110, "fclass": "hospital", "name": "Niamatpur Upazila Health Complex" }, "geometry": { "type": "Point", "coordinates": [ 88.5748276, 24.8309811 ] } },
{ "type": "Feature", "properties": { "osm_id": "2349378792", "code": 2110, "fclass": "hospital", "name": "Bholarhat Upazila Health Complex" }, "geometry": { "type": "Point", "coordinates": [ 88.2218319, 24.9363788 ] } },
{ "type": "Feature", "properties": { "osm_id": "2349378799", "code": 2110, "fclass": "hospital", "name": "Porsha Upazila Health Complex" }, "geometry": { "type": "Point", "coordinates": [ 88.455204, 25.0229353 ] } },
{ "type": "Feature", "properties": { "osm_id": "2349386825", "code": 2110, "fclass": "hospital", "name": "Belkuchi Upazila Health Complex" }, "geometry": { "type": "Point", "coordinates": [ 89.6950129, 24.3003839 ] } },
{ "type": "Feature", "properties": { "osm_id": "2349386830", "code": 2110, "fclass": "hospital", "name": "Dhamoirhat Upazila Health Complex" }, "geometry": { "type": "Point", "coordinates": [ 88.8511378, 25.1515031 ] } },
{ "type": "Feature", "properties": { "osm_id": "2349386841", "code": 2110, "fclass": "hospital", "name": "Naogaon General Hospital" }, "geometry": { "type": "Point", "coordinates": [ 88.9381037, 24.8232289 ] } },
{ "type": "Feature", "properties": { "osm_id": "2349386844", "code": 2110, "fclass": "hospital", "name": "Patnitola Upazila Health Complex" }, "geometry": { "type": "Point", "coordinates": [ 88.7555694, 25.0492086 ] } },
{ "type": "Feature", "properties": { "osm_id": "2349386848", "code": 2110, "fclass": "hospital", "name": "Raninagar Upazila Health Complex" }, "geometry": { "type": "Point", "coordinates": [ 88.9607748, 24.742842 ] } },
{ "type": "Feature", "properties": { "osm_id": "2349386851", "code": 2110, "fclass": "hospital", "name": "Singra Upazila Health Complex" }, "geometry": { "type": "Point", "coordinates": [ 89.1461038, 24.5135663 ] } },
{ "type": "Feature", "properties": { "osm_id": "2349386854", "code": 2110, "fclass": "hospital", "name": "Tanore Upazila Health Complex" }, "geometry": { "type": "Point", "coordinates": [ 88.5749801, 24.5758157 ] } },
{ "type": "Feature", "properties": { "osm_id": "2349387234", "code": 2110, "fclass": "hospital", "name": "Joypurhat General Hospital" }, "geometry": { "type": "Point", "coordinates": [ 89.042542, 25.0954903 ] } },
{ "type": "Feature", "properties": { "osm_id": "2349387503", "code": 2110, "fclass": "hospital", "name": "Hakimpur Upazila Health Complex" }, "geometry": { "type": "Point", "coordinates": [ 89.0124068, 25.2866264 ] } },
{ "type": "Feature", "properties": { "osm_id": "2349387505", "code": 2110, "fclass": "hospital", "name": "Panchbibi Upazila Health Complex" }, "geometry": { "type": "Point", "coordinates": [ 89.0414077, 25.1946879 ] } },
{ "type": "Feature", "properties": { "osm_id": "2352335413", "code": 2110, "fclass": "hospital", "name": "Adamdighi Upazila Health Complex" }, "geometry": { "type": "Point", "coordinates": [ 89.0442439, 24.8219949 ] } },
{ "type": "Feature", "properties": { "osm_id": "2352335414", "code": 2110, "fclass": "hospital", "name": "Akkelpur Upazila Health Complex" }, "geometry": { "type": "Point", "coordinates": [ 89.0225946, 24.9673039 ] } },
{ "type": "Feature", "properties": { "osm_id": "2352335415", "code": 2110, "fclass": "hospital", "name": "Sathiya Upazila Health Complex" }, "geometry": { "type": "Point", "coordinates": [ 89.5482098, 24.0536652 ] } },
{ "type": "Feature", "properties": { "osm_id": "2352335416", "code": 2110, "fclass": "hospital", "name": "Sirajganj General Hospital" }, "geometry": { "type": "Point", "coordinates": [ 89.7110436, 24.4586368 ] } },
{ "type": "Feature", "properties": { "osm_id": "2352337332", "code": 2110, "fclass": "hospital", "name": "Dupchachia Upazila Health Complex" }, "geometry": { "type": "Point", "coordinates": [ 89.1717127, 24.8758068 ] } },
{ "type": "Feature", "properties": { "osm_id": "2365517019", "code": 2110, "fclass": "hospital", "name": "" }, "geometry": { "type": "Point", "coordinates": [ 89.8381585, 23.6062639 ] } },
{ "type": "Feature", "properties": { "osm_id": "2365517022", "code": 2110, "fclass": "hospital", "name": "Faridpur Medical College Hospital" }, "geometry": { "type": "Point", "coordinates": [ 89.835914, 23.5893522 ] } },
{ "type": "Feature", "properties": { "osm_id": "2365517025", "code": 2110, "fclass": "hospital", "name": "Goalanda Upazila Health Complex" }, "geometry": { "type": "Point", "coordinates": [ 89.7466981, 23.7240229 ] } },
{ "type": "Feature", "properties": { "osm_id": "2365517028", "code": 2110, "fclass": "hospital", "name": "Harirampur Upazila Health Complex" }, "geometry": { "type": "Point", "coordinates": [ 89.9756, 23.7422154 ] } },
{ "type": "Feature", "properties": { "osm_id": "2365517031", "code": 2110, "fclass": "hospital", "name": "Rajbari General Hospital" }, "geometry": { "type": "Point", "coordinates": [ 89.6476795, 23.7499925 ] } },
{ "type": "Feature", "properties": { "osm_id": "2365532473", "code": 2110, "fclass": "hospital", "name": "Phulbari Upazila Health Complex" }, "geometry": { "type": "Point", "coordinates": [ 88.9482671, 25.5021795 ] } },
{ "type": "Feature", "properties": { "osm_id": "2365535325", "code": 2110, "fclass": "hospital", "name": "Nawabganj Upazila Health Complex" }, "geometry": { "type": "Point", "coordinates": [ 89.0818059, 25.4186693 ] } },
{ "type": "Feature", "properties": { "osm_id": "2365539233", "code": 2110, "fclass": "hospital", "name": "Shibganj Upazila Health Complex" }, "geometry": { "type": "Point", "coordinates": [ 89.3157235, 25.0060446 ] } },
{ "type": "Feature", "properties": { "osm_id": "2381382608", "code": 2110, "fclass": "hospital", "name": "Manikganj General Hospital" }, "geometry": { "type": "Point", "coordinates": [ 90.0005109, 23.869257 ] } },
{ "type": "Feature", "properties": { "osm_id": "2381382609", "code": 2110, "fclass": "hospital", "name": "Saturia Upazila Health Complex" }, "geometry": { "type": "Point", "coordinates": [ 90.035345, 23.9684567 ] } },
{ "type": "Feature", "properties": { "osm_id": "2381383999", "code": 2110, "fclass": "hospital", "name": "Delduar Upazila Health Complex" }, "geometry": { "type": "Point", "coordinates": [ 89.966907, 24.163777 ] } },
{ "type": "Feature", "properties": { "osm_id": "2381384473", "code": 2110, "fclass": "hospital", "name": "Kalihati Upazila Health Complex" }, "geometry": { "type": "Point", "coordinates": [ 89.9905506, 24.3899051 ] } },
{ "type": "Feature", "properties": { "osm_id": "2381386582", "code": 2110, "fclass": "hospital", "name": "Panchagarh General Hospital" }, "geometry": { "type": "Point", "coordinates": [ 88.5573101, 26.3392356 ] } },
{ "type": "Feature", "properties": { "osm_id": "2381387093", "code": 2110, "fclass": "hospital", "name": "Atwari Upazila Health Complex" }, "geometry": { "type": "Point", "coordinates": [ 88.4088819, 26.2370487 ] } },
{ "type": "Feature", "properties": { "osm_id": "2381388292", "code": 2110, "fclass": "hospital", "name": "Boda Upazila Health Complex" }, "geometry": { "type": "Point", "coordinates": [ 88.5532585, 26.2034807 ] } },
{ "type": "Feature", "properties": { "osm_id": "2381388293", "code": 2110, "fclass": "hospital", "name": "Thakurgaon General Hospital" }, "geometry": { "type": "Point", "coordinates": [ 88.4758423, 26.0305929 ] } },
{ "type": "Feature", "properties": { "osm_id": "2381389093", "code": 2110, "fclass": "hospital", "name": "Dinajpur General Hospital" }, "geometry": { "type": "Point", "coordinates": [ 88.6371367, 25.6256582 ] } },
{ "type": "Feature", "properties": { "osm_id": "2381389722", "code": 2110, "fclass": "hospital", "name": "Kaharole Upazila Health Complex" }, "geometry": { "type": "Point", "coordinates": [ 88.606676, 25.7937281 ] } },
{ "type": "Feature", "properties": { "osm_id": "2381391525", "code": 2110, "fclass": "hospital", "name": "কিশোরগঞ্জ উপজেলা স্বাস্থ্য কমপ্লেক্" }, "geometry": { "type": "Point", "coordinates": [ 89.0128047, 25.8994086 ] } },
{ "type": "Feature", "properties": { "osm_id": "2381391884", "code": 2110, "fclass": "hospital", "name": "Nilphamari General Hospital" }, "geometry": { "type": "Point", "coordinates": [ 88.8453772, 25.9306735 ] } },
{ "type": "Feature", "properties": { "osm_id": "2381392623", "code": 2110, "fclass": "hospital", "name": "Debiganj Upazila Health Complex" }, "geometry": { "type": "Point", "coordinates": [ 88.7560236, 26.1162244 ] } },
{ "type": "Feature", "properties": { "osm_id": "2382256252", "code": 2110, "fclass": "hospital", "name": "Shibalaya Upazila Health Complex" }, "geometry": { "type": "Point", "coordinates": [ 89.8215542, 23.8465191 ] } },
{ "type": "Feature", "properties": { "osm_id": "2382257863", "code": 2110, "fclass": "hospital", "name": "Daudkandi Upazila Health Complex" }, "geometry": { "type": "Point", "coordinates": [ 90.7830709, 23.5295846 ] } },
{ "type": "Feature", "properties": { "osm_id": "2382257864", "code": 2110, "fclass": "hospital", "name": "Gazaria Upazila Health Complex" }, "geometry": { "type": "Point", "coordinates": [ 90.6529191, 23.5529684 ] } },
{ "type": "Feature", "properties": { "osm_id": "2382257865", "code": 2110, "fclass": "hospital", "name": "Sirajdikhan Upazila Health Complex" }, "geometry": { "type": "Point", "coordinates": [ 90.3876349, 23.5499681 ] } },
{ "type": "Feature", "properties": { "osm_id": "2382259745", "code": 2110, "fclass": "hospital", "name": "Matlab Upazila Health Complex" }, "geometry": { "type": "Point", "coordinates": [ 90.7040842, 23.3478544 ] } },
{ "type": "Feature", "properties": { "osm_id": "2382261918", "code": 2110, "fclass": "hospital", "name": "Hajiganj Upazila Health Complex" }, "geometry": { "type": "Point", "coordinates": [ 90.8738416, 23.2502563 ] } },
{ "type": "Feature", "properties": { "osm_id": "2382262545", "code": 2110, "fclass": "hospital", "name": "Shahrasti Upazila Health Complex" }, "geometry": { "type": "Point", "coordinates": [ 90.9492877, 23.22802 ] } },
{ "type": "Feature", "properties": { "osm_id": "2382262625", "code": 2110, "fclass": "hospital", "name": "Kachua Upazila Health Complex" }, "geometry": { "type": "Point", "coordinates": [ 90.8907656, 23.3409069 ] } },
{ "type": "Feature", "properties": { "osm_id": "2382262817", "code": 2110, "fclass": "hospital", "name": "Barura Upazila Health Complex" }, "geometry": { "type": "Point", "coordinates": [ 91.0589789, 23.3765251 ] } },
{ "type": "Feature", "properties": { "osm_id": "2382263483", "code": 2110, "fclass": "hospital", "name": "Laksham Upazila Health Complex" }, "geometry": { "type": "Point", "coordinates": [ 91.1177264, 23.2339429 ] } },
{ "type": "Feature", "properties": { "osm_id": "2382265286", "code": 2110, "fclass": "hospital", "name": "নাঙলকোট উপজেলা স্বাস্থ্য কমপ্লেক্স" }, "geometry": { "type": "Point", "coordinates": [ 91.1989327, 23.1715795 ] } },
{ "type": "Feature", "properties": { "osm_id": "2382266322", "code": 2110, "fclass": "hospital", "name": "Matiranga Upazila Health Complex" }, "geometry": { "type": "Point", "coordinates": [ 91.8753994, 23.0395169 ] } },
{ "type": "Feature", "properties": { "osm_id": "2382266618", "code": 2110, "fclass": "hospital", "name": "Khagrachari General Hospital" }, "geometry": { "type": "Point", "coordinates": [ 91.9927821, 23.1080103 ] } },
{ "type": "Feature", "properties": { "osm_id": "2382267549", "code": 2110, "fclass": "hospital", "name": "Dighinala Upazila Health Complex" }, "geometry": { "type": "Point", "coordinates": [ 92.0658016, 23.2495549 ] } },
{ "type": "Feature", "properties": { "osm_id": "2382267550", "code": 2110, "fclass": "hospital", "name": "Panchari Upazila Health Complex" }, "geometry": { "type": "Point", "coordinates": [ 91.8999107, 23.2972126 ] } },
{ "type": "Feature", "properties": { "osm_id": "2405793400", "code": 2110, "fclass": "hospital", "name": "Nabinagar Upazila Health Complex" }, "geometry": { "type": "Point", "coordinates": [ 90.9676658, 23.8862864 ] } },
{ "type": "Feature", "properties": { "osm_id": "2408686614", "code": 2110, "fclass": "hospital", "name": "Agrabad Eye Hospital" }, "geometry": { "type": "Point", "coordinates": [ 91.8027234, 22.3288889 ] } },
{ "type": "Feature", "properties": { "osm_id": "2409448296", "code": 2110, "fclass": "hospital", "name": "Nakla Upazilla Health Complex" }, "geometry": { "type": "Point", "coordinates": [ 90.1832214, 24.9672892 ] } },
{ "type": "Feature", "properties": { "osm_id": "2412031667", "code": 2110, "fclass": "hospital", "name": "Patiya Upazila Health Complex" }, "geometry": { "type": "Point", "coordinates": [ 91.9705669, 22.2996376 ] } },
{ "type": "Feature", "properties": { "osm_id": "2412065020", "code": 2110, "fclass": "hospital", "name": "Chakaria Upazila Health Complex" }, "geometry": { "type": "Point", "coordinates": [ 92.074861, 21.7619198 ] } },
{ "type": "Feature", "properties": { "osm_id": "2431185143", "code": 2110, "fclass": "hospital", "name": "Narail Upazilla Office Complex" }, "geometry": { "type": "Point", "coordinates": [ 89.5066191, 23.1732251 ] } },
{ "type": "Feature", "properties": { "osm_id": "2446029248", "code": 2110, "fclass": "hospital", "name": "The fair lab" }, "geometry": { "type": "Point", "coordinates": [ 91.8661393, 22.4179164 ] } },
{ "type": "Feature", "properties": { "osm_id": "2451664683", "code": 2110, "fclass": "hospital", "name": "ASEAB Health Clinic" }, "geometry": { "type": "Point", "coordinates": [ 89.3210623, 23.9676211 ] } },
{ "type": "Feature", "properties": { "osm_id": "2492654592", "code": 2110, "fclass": "hospital", "name": "CD PATH" }, "geometry": { "type": "Point", "coordinates": [ 91.1793856, 23.4619904 ] } },
{ "type": "Feature", "properties": { "osm_id": "2508510818", "code": 2110, "fclass": "hospital", "name": "Institute of Nuclear Medicine and Allied Sciences" }, "geometry": { "type": "Point", "coordinates": [ 88.638255, 25.6266021 ] } },
{ "type": "Feature", "properties": { "osm_id": "2509564908", "code": 2110, "fclass": "hospital", "name": "Midland Hospital" }, "geometry": { "type": "Point", "coordinates": [ 91.1806023, 23.4585048 ] } },
{ "type": "Feature", "properties": { "osm_id": "2510273574", "code": 2110, "fclass": "hospital", "name": "Bogra Diabetic Hospital" }, "geometry": { "type": "Point", "coordinates": [ 89.3571877, 24.8836681 ] } },
{ "type": "Feature", "properties": { "osm_id": "2552266475", "code": 2110, "fclass": "hospital", "name": "" }, "geometry": { "type": "Point", "coordinates": [ 89.7096693, 24.4537651 ] } },
{ "type": "Feature", "properties": { "osm_id": "2571053072", "code": 2110, "fclass": "hospital", "name": "Ma Moni Hospital" }, "geometry": { "type": "Point", "coordinates": [ 91.8349368, 22.3596798 ] } },
{ "type": "Feature", "properties": { "osm_id": "2577035693", "code": 2110, "fclass": "hospital", "name": "Orin Dental Care" }, "geometry": { "type": "Point", "coordinates": [ 91.8524369, 22.3602517 ] } },
{ "type": "Feature", "properties": { "osm_id": "2580458163", "code": 2110, "fclass": "hospital", "name": "Sensive Diagnostics Center" }, "geometry": { "type": "Point", "coordinates": [ 91.8339182, 22.3461643 ] } },
{ "type": "Feature", "properties": { "osm_id": "2580474812", "code": 2110, "fclass": "hospital", "name": "Bellevue Diagnostic Center" }, "geometry": { "type": "Point", "coordinates": [ 91.8340144, 22.3446545 ] } },
{ "type": "Feature", "properties": { "osm_id": "2580477465", "code": 2110, "fclass": "hospital", "name": "Lab one diagnostic center" }, "geometry": { "type": "Point", "coordinates": [ 91.8335531, 22.3446669 ] } },
{ "type": "Feature", "properties": { "osm_id": "2585719362", "code": 2110, "fclass": "hospital", "name": "Bangladesh Diabetic Foot Saving Centre" }, "geometry": { "type": "Point", "coordinates": [ 91.8329767, 22.3439671 ] } },
{ "type": "Feature", "properties": { "osm_id": "2616255489", "code": 2110, "fclass": "hospital", "name": "Khaled General Hospital" }, "geometry": { "type": "Point", "coordinates": [ 91.4433542, 24.9218234 ] } },
{ "type": "Feature", "properties": { "osm_id": "2682106391", "code": 2110, "fclass": "hospital", "name": "Daulatkhan Health Complex" }, "geometry": { "type": "Point", "coordinates": [ 90.7463456, 22.6046687 ] } },
{ "type": "Feature", "properties": { "osm_id": "2697236496", "code": 2110, "fclass": "hospital", "name": "Uttara Community Hospital" }, "geometry": { "type": "Point", "coordinates": [ 90.4041091, 23.8691562 ] } },
{ "type": "Feature", "properties": { "osm_id": "2799229931", "code": 2110, "fclass": "hospital", "name": "Doctors Clinic" }, "geometry": { "type": "Point", "coordinates": [ 89.9171926, 24.2537174 ] } },
{ "type": "Feature", "properties": { "osm_id": "2799241565", "code": 2110, "fclass": "hospital", "name": "Shapla Clinic" }, "geometry": { "type": "Point", "coordinates": [ 89.9223291, 24.271815 ] } },
{ "type": "Feature", "properties": { "osm_id": "2803886657", "code": 2110, "fclass": "hospital", "name": "Jhenaidah Eye Hospital" }, "geometry": { "type": "Point", "coordinates": [ 89.1917141, 23.5417661 ] } },
{ "type": "Feature", "properties": { "osm_id": "2808738880", "code": 2110, "fclass": "hospital", "name": "Surjer Hashi Clinic" }, "geometry": { "type": "Point", "coordinates": [ 89.5033818, 23.1737359 ] } },
{ "type": "Feature", "properties": { "osm_id": "2809039581", "code": 2110, "fclass": "hospital", "name": "Bunagati High School" }, "geometry": { "type": "Point", "coordinates": [ 89.4254447, 23.3112773 ] } },
{ "type": "Feature", "properties": { "osm_id": "2813443337", "code": 2110, "fclass": "hospital", "name": "Feni Diabetic Hospital" }, "geometry": { "type": "Point", "coordinates": [ 91.3975738, 23.0129351 ] } },
{ "type": "Feature", "properties": { "osm_id": "2815348434", "code": 2110, "fclass": "hospital", "name": "Chandina General Hospital" }, "geometry": { "type": "Point", "coordinates": [ 91.0067378, 23.485957 ] } },
{ "type": "Feature", "properties": { "osm_id": "2824254451", "code": 2110, "fclass": "hospital", "name": "Nagda Shimla Health Center" }, "geometry": { "type": "Point", "coordinates": [ 89.916475, 24.6140873 ] } },
{ "type": "Feature", "properties": { "osm_id": "2828258270", "code": 2110, "fclass": "hospital", "name": "Nazirhat Upazila Health  Complex" }, "geometry": { "type": "Point", "coordinates": [ 91.7954382, 22.6365843 ] } },
{ "type": "Feature", "properties": { "osm_id": "2828406228", "code": 2110, "fclass": "hospital", "name": "Manikchari Upazila Health Complex" }, "geometry": { "type": "Point", "coordinates": [ 91.8411782, 22.8501899 ] } },
{ "type": "Feature", "properties": { "osm_id": "2831083551", "code": 2110, "fclass": "hospital", "name": "Alikadam Upazila Health Complex" }, "geometry": { "type": "Point", "coordinates": [ 92.3119346, 21.6523607 ] } },
{ "type": "Feature", "properties": { "osm_id": "2831102978", "code": 2110, "fclass": "hospital", "name": "Christian Memorial Hospital" }, "geometry": { "type": "Point", "coordinates": [ 92.0772639, 21.6817229 ] } },
{ "type": "Feature", "properties": { "osm_id": "2831134999", "code": 2110, "fclass": "hospital", "name": "Inani Health Sub Center" }, "geometry": { "type": "Point", "coordinates": [ 92.0491455, 21.2361112 ] } },
{ "type": "Feature", "properties": { "osm_id": "2877319781", "code": 2110, "fclass": "hospital", "name": "MARKS HOSPITAL" }, "geometry": { "type": "Point", "coordinates": [ 90.3865056, 23.7989706 ] } },
{ "type": "Feature", "properties": { "osm_id": "2881689476", "code": 2110, "fclass": "hospital", "name": "Chatila Sub Health Center" }, "geometry": { "type": "Point", "coordinates": [ 89.9126986, 24.5921412 ] } },
{ "type": "Feature", "properties": { "osm_id": "2895202033", "code": 2110, "fclass": "hospital", "name": "East West Medical College and Hospital" }, "geometry": { "type": "Point", "coordinates": [ 90.3766464, 23.8941807 ] } },
{ "type": "Feature", "properties": { "osm_id": "2993160472", "code": 2110, "fclass": "hospital", "name": "Life Care" }, "geometry": { "type": "Point", "coordinates": [ 90.4101087, 23.780555 ] } },
{ "type": "Feature", "properties": { "osm_id": "2993197559", "code": 2110, "fclass": "hospital", "name": "National Institute of Diseases of the Chest & Hospital" }, "geometry": { "type": "Point", "coordinates": [ 90.4087339, 23.7762603 ] } },
{ "type": "Feature", "properties": { "osm_id": "3003562592", "code": 2110, "fclass": "hospital", "name": "Al Razi Hospital (Ext)" }, "geometry": { "type": "Point", "coordinates": [ 90.3900863, 23.7592083 ] } },
{ "type": "Feature", "properties": { "osm_id": "3003715875", "code": 2110, "fclass": "hospital", "name": "Al Fateh Diagnostics" }, "geometry": { "type": "Point", "coordinates": [ 90.3903864, 23.7586584 ] } },
{ "type": "Feature", "properties": { "osm_id": "3006174850", "code": 2110, "fclass": "hospital", "name": "Institute of Nuclear Medicine" }, "geometry": { "type": "Point", "coordinates": [ 90.3942607, 23.7391216 ] } },
{ "type": "Feature", "properties": { "osm_id": "3006177812", "code": 2110, "fclass": "hospital", "name": "Outdoor" }, "geometry": { "type": "Point", "coordinates": [ 90.3953693, 23.7396737 ] } },
{ "type": "Feature", "properties": { "osm_id": "3015256422", "code": 2110, "fclass": "hospital", "name": "Free Friday Clinic" }, "geometry": { "type": "Point", "coordinates": [ 90.4072651, 23.7302625 ] } },
{ "type": "Feature", "properties": { "osm_id": "3283392703", "code": 2110, "fclass": "hospital", "name": "" }, "geometry": { "type": "Point", "coordinates": [ 90.410826, 23.7735858 ] } },
{ "type": "Feature", "properties": { "osm_id": "3283392704", "code": 2110, "fclass": "hospital", "name": "TB Hospital" }, "geometry": { "type": "Point", "coordinates": [ 90.4099113, 23.7739208 ] } },
{ "type": "Feature", "properties": { "osm_id": "3301113417", "code": 2110, "fclass": "hospital", "name": "Manobic Heath Center" }, "geometry": { "type": "Point", "coordinates": [ 90.3808215, 23.7155564 ] } },
{ "type": "Feature", "properties": { "osm_id": "3301866477", "code": 2110, "fclass": "hospital", "name": "Upazila Health Complex" }, "geometry": { "type": "Point", "coordinates": [ 90.3234324, 23.7291782 ] } },
{ "type": "Feature", "properties": { "osm_id": "3307823182", "code": 2110, "fclass": "hospital", "name": "Bresba Medical Services LTD." }, "geometry": { "type": "Point", "coordinates": [ 90.3340594, 23.7299525 ] } },
{ "type": "Feature", "properties": { "osm_id": "3307824662", "code": 2110, "fclass": "hospital", "name": "Ati Bazar Central Hospital" }, "geometry": { "type": "Point", "coordinates": [ 90.3333249, 23.7303012 ] } },
{ "type": "Feature", "properties": { "osm_id": "3314001918", "code": 2110, "fclass": "hospital", "name": "Riverside Hospital" }, "geometry": { "type": "Point", "coordinates": [ 90.3675051, 23.7100254 ] } },
{ "type": "Feature", "properties": { "osm_id": "3314098942", "code": 2110, "fclass": "hospital", "name": "Life & Care Hospital" }, "geometry": { "type": "Point", "coordinates": [ 90.3578648, 23.7302739 ] } },
{ "type": "Feature", "properties": { "osm_id": "3315890963", "code": 2110, "fclass": "hospital", "name": "Japan Bangladesh Friendship Hospital" }, "geometry": { "type": "Point", "coordinates": [ 90.3750454, 23.7395453 ] } },
{ "type": "Feature", "properties": { "osm_id": "3320927147", "code": 2110, "fclass": "hospital", "name": "Sikder Medical College Hospital" }, "geometry": { "type": "Point", "coordinates": [ 90.3587459, 23.740944 ] } },
{ "type": "Feature", "properties": { "osm_id": "3320955408", "code": 2110, "fclass": "hospital", "name": "Bangladesh Eye trust Hospital" }, "geometry": { "type": "Point", "coordinates": [ 90.3602519, 23.7437864 ] } },
{ "type": "Feature", "properties": { "osm_id": "3321172255", "code": 2110, "fclass": "hospital", "name": "Urban Primary Health Care Center" }, "geometry": { "type": "Point", "coordinates": [ 90.3625365, 23.7454685 ] } },
{ "type": "Feature", "properties": { "osm_id": "3328858519", "code": 2110, "fclass": "hospital", "name": "Naz-E-Noor Hospital" }, "geometry": { "type": "Point", "coordinates": [ 90.3703427, 23.7458503 ] } },
{ "type": "Feature", "properties": { "osm_id": "3352996091", "code": 2110, "fclass": "hospital", "name": "Gazi Medical College and Hospital" }, "geometry": { "type": "Point", "coordinates": [ 89.5457201, 22.8175849 ] } },
{ "type": "Feature", "properties": { "osm_id": "3360213293", "code": 2110, "fclass": "hospital", "name": "Adachaki Community Hospital" }, "geometry": { "type": "Point", "coordinates": [ 89.6721271, 24.3193097 ] } },
{ "type": "Feature", "properties": { "osm_id": "3381756304", "code": 2110, "fclass": "hospital", "name": "ডিমলা উপজেলা স্বাস্থ্য কমপ্লেক্স" }, "geometry": { "type": "Point", "coordinates": [ 88.9249713, 26.1563388 ] } },
{ "type": "Feature", "properties": { "osm_id": "3388662566", "code": 2110, "fclass": "hospital", "name": "__চক্ষু হাসপাতাল" }, "geometry": { "type": "Point", "coordinates": [ 90.3399394, 22.6731351 ] } },
{ "type": "Feature", "properties": { "osm_id": "3391624665", "code": 2110, "fclass": "hospital", "name": "Nogor Shasto kendro" }, "geometry": { "type": "Point", "coordinates": [ 90.3673035, 23.7307962 ] } },
{ "type": "Feature", "properties": { "osm_id": "3450283986", "code": 2110, "fclass": "hospital", "name": "National Institute of Traumatology & Orthopaedic Rehabilitation (NITOR)" }, "geometry": { "type": "Point", "coordinates": [ 90.3695891, 23.7735111 ] } },
{ "type": "Feature", "properties": { "osm_id": "3473792183", "code": 2110, "fclass": "hospital", "name": "Puspit Nursing Home" }, "geometry": { "type": "Point", "coordinates": [ 90.3722885, 23.7124024 ] } },
{ "type": "Feature", "properties": { "osm_id": "3502993813", "code": 2110, "fclass": "hospital", "name": "মেরী স্টোপস স্বাস্থ্য কেন্দ্র" }, "geometry": { "type": "Point", "coordinates": [ 90.3625354, 23.7141574 ] } },
{ "type": "Feature", "properties": { "osm_id": "3528885127", "code": 2110, "fclass": "hospital", "name": "Aleya Islam General Hospital" }, "geometry": { "type": "Point", "coordinates": [ 90.3719977, 23.7171694 ] } },
{ "type": "Feature", "properties": { "osm_id": "3528909645", "code": 2110, "fclass": "hospital", "name": "Government Remeta Employee Hospital" }, "geometry": { "type": "Point", "coordinates": [ 90.3742506, 23.7406532 ] } },
{ "type": "Feature", "properties": { "osm_id": "3529068545", "code": 2110, "fclass": "hospital", "name": "Al-Ahsan Diagnostic Hospital" }, "geometry": { "type": "Point", "coordinates": [ 90.3727432, 23.7184024 ] } },
{ "type": "Feature", "properties": { "osm_id": "3529312405", "code": 2110, "fclass": "hospital", "name": "Marie Stopes" }, "geometry": { "type": "Point", "coordinates": [ 90.3680177, 23.7177122 ] } },
{ "type": "Feature", "properties": { "osm_id": "3529323293", "code": 2110, "fclass": "hospital", "name": "মেডিসিন্স সান্স ফ্রন্টিয়ার্স" }, "geometry": { "type": "Point", "coordinates": [ 90.3677164, 23.7162141 ] } },
{ "type": "Feature", "properties": { "osm_id": "3536701593", "code": 2110, "fclass": "hospital", "name": "High Light Eye Hospital" }, "geometry": { "type": "Point", "coordinates": [ 89.5030255, 23.1738426 ] } },
{ "type": "Feature", "properties": { "osm_id": "3558445437", "code": 2110, "fclass": "hospital", "name": "Netrokona Sadar Hospital" }, "geometry": { "type": "Point", "coordinates": [ 90.7321918, 24.8717249 ] } },
{ "type": "Feature", "properties": { "osm_id": "3559086357", "code": 2110, "fclass": "hospital", "name": "জেনারেল মেডিক্যাল হসপিটাল" }, "geometry": { "type": "Point", "coordinates": [ 90.3877204, 23.7383957 ] } },
{ "type": "Feature", "properties": { "osm_id": "3559113604", "code": 2110, "fclass": "hospital", "name": "Madan Upazilla Health Complex" }, "geometry": { "type": "Point", "coordinates": [ 90.9453272, 24.7167996 ] } },
{ "type": "Feature", "properties": { "osm_id": "3561656524", "code": 2110, "fclass": "hospital", "name": "New Swadesh Hospital and Diagonostic Center" }, "geometry": { "type": "Point", "coordinates": [ 90.7314299, 24.8793661 ] } },
{ "type": "Feature", "properties": { "osm_id": "3575340362", "code": 2110, "fclass": "hospital", "name": "Mymensingh medical collage hospital" }, "geometry": { "type": "Point", "coordinates": [ 90.40919, 24.7429322 ] } },
{ "type": "Feature", "properties": { "osm_id": "3583149294", "code": 2110, "fclass": "hospital", "name": "Mamata clinic" }, "geometry": { "type": "Point", "coordinates": [ 89.5093048, 22.8966272 ] } },
{ "type": "Feature", "properties": { "osm_id": "3671354272", "code": 2110, "fclass": "hospital", "name": "Meherun Homeo Pharmacy" }, "geometry": { "type": "Point", "coordinates": [ 90.3866517, 23.7370732 ] } },
{ "type": "Feature", "properties": { "osm_id": "3702053369", "code": 2110, "fclass": "hospital", "name": "Health & Family Wlfare Center" }, "geometry": { "type": "Point", "coordinates": [ 90.6728523, 25.106312 ] } },
{ "type": "Feature", "properties": { "osm_id": "3712960338", "code": 2110, "fclass": "hospital", "name": "" }, "geometry": { "type": "Point", "coordinates": [ 90.3992966, 23.7451485 ] } },
{ "type": "Feature", "properties": { "osm_id": "3715197755", "code": 2110, "fclass": "hospital", "name": "Police Lines Hospital" }, "geometry": { "type": "Point", "coordinates": [ 91.8592555, 24.899578 ] } },
{ "type": "Feature", "properties": { "osm_id": "3715212193", "code": 2110, "fclass": "hospital", "name": "Trust Medical Services" }, "geometry": { "type": "Point", "coordinates": [ 91.8601202, 24.8983946 ] } },
{ "type": "Feature", "properties": { "osm_id": "3720243035", "code": 2110, "fclass": "hospital", "name": "Shahid Samsuddin Ahmed Hospital" }, "geometry": { "type": "Point", "coordinates": [ 91.8673142, 24.8990649 ] } },
{ "type": "Feature", "properties": { "osm_id": "3720261994", "code": 2110, "fclass": "hospital", "name": "Central Hospital" }, "geometry": { "type": "Point", "coordinates": [ 91.87101, 24.8988371 ] } },
{ "type": "Feature", "properties": { "osm_id": "3720274144", "code": 2110, "fclass": "hospital", "name": "IBN SINA Hospital" }, "geometry": { "type": "Point", "coordinates": [ 91.8777267, 24.8918061 ] } },
{ "type": "Feature", "properties": { "osm_id": "3731340874", "code": 2110, "fclass": "hospital", "name": "Bera Upazilla Health Complex" }, "geometry": { "type": "Point", "coordinates": [ 89.614898, 24.077227 ] } },
{ "type": "Feature", "properties": { "osm_id": "3731446676", "code": 2110, "fclass": "hospital", "name": "আল-বারাকাহ জেনারেল হাসপাতাল" }, "geometry": { "type": "Point", "coordinates": [ 90.4186838, 23.7410273 ] } },
{ "type": "Feature", "properties": { "osm_id": "3732390817", "code": 2110, "fclass": "hospital", "name": "Al-Helal Hospital" }, "geometry": { "type": "Point", "coordinates": [ 90.370642, 23.8027632 ] } },
{ "type": "Feature", "properties": { "osm_id": "3732776471", "code": 2110, "fclass": "hospital", "name": "প্রাইম ব্যাংক চক্ষু হাসপাতাল" }, "geometry": { "type": "Point", "coordinates": [ 90.3723242, 23.7442514 ] } },
{ "type": "Feature", "properties": { "osm_id": "3732862292", "code": 2110, "fclass": "hospital", "name": "Eden Multicare Hospital" }, "geometry": { "type": "Point", "coordinates": [ 90.3702313, 23.7472931 ] } },
{ "type": "Feature", "properties": { "osm_id": "3733247146", "code": 2110, "fclass": "hospital", "name": "আম্বিয়া হাসপাতাল" }, "geometry": { "type": "Point", "coordinates": [ 90.3607676, 22.7071359 ] } },
{ "type": "Feature", "properties": { "osm_id": "3733265504", "code": 2110, "fclass": "hospital", "name": "অ্যাপোলো হাসপাতাল ও ডায়াগনস্টিক সেন" }, "geometry": { "type": "Point", "coordinates": [ 90.3698466, 22.7007191 ] } },
{ "type": "Feature", "properties": { "osm_id": "3733265506", "code": 2110, "fclass": "hospital", "name": "মেডিনোভা" }, "geometry": { "type": "Point", "coordinates": [ 90.372358, 22.7033784 ] } },
{ "type": "Feature", "properties": { "osm_id": "3734280310", "code": 2110, "fclass": "hospital", "name": "University Dental College and Hospital" }, "geometry": { "type": "Point", "coordinates": [ 90.4091274, 23.7477633 ] } },
{ "type": "Feature", "properties": { "osm_id": "3734289774", "code": 2110, "fclass": "hospital", "name": "" }, "geometry": { "type": "Point", "coordinates": [ 90.4285859, 23.737429 ] } },
{ "type": "Feature", "properties": { "osm_id": "3734803537", "code": 2110, "fclass": "hospital", "name": "radda" }, "geometry": { "type": "Point", "coordinates": [ 90.3696927, 23.8075588 ] } },
{ "type": "Feature", "properties": { "osm_id": "3734921272", "code": 2110, "fclass": "hospital", "name": "" }, "geometry": { "type": "Point", "coordinates": [ 90.3940639, 23.8682156 ] } },
{ "type": "Feature", "properties": { "osm_id": "3740064551", "code": 2110, "fclass": "hospital", "name": "Eye hospital" }, "geometry": { "type": "Point", "coordinates": [ 90.3674582, 23.8166526 ] } },
{ "type": "Feature", "properties": { "osm_id": "3741032771", "code": 2110, "fclass": "hospital", "name": "Bangladesh Humiopathik Porishod, Dhaka Jila" }, "geometry": { "type": "Point", "coordinates": [ 90.4242969, 23.711037 ] } },
{ "type": "Feature", "properties": { "osm_id": "3744956568", "code": 2110, "fclass": "hospital", "name": "Aroggo niketon homio center" }, "geometry": { "type": "Point", "coordinates": [ 90.4247766, 23.7035507 ] } },
{ "type": "Feature", "properties": { "osm_id": "3744967700", "code": 2110, "fclass": "hospital", "name": "Delta Dygonestic & Health Service" }, "geometry": { "type": "Point", "coordinates": [ 90.4194307, 23.7024645 ] } },
{ "type": "Feature", "properties": { "osm_id": "3776240715", "code": 2110, "fclass": "hospital", "name": "" }, "geometry": { "type": "Point", "coordinates": [ 89.9668575, 23.2053061 ] } },
{ "type": "Feature", "properties": { "osm_id": "3781657800", "code": 2110, "fclass": "hospital", "name": "Government Outdoor Dispensary (GOD)" }, "geometry": { "type": "Point", "coordinates": [ 90.3805302, 23.8191076 ] } },
{ "type": "Feature", "properties": { "osm_id": "3788786313", "code": 2110, "fclass": "hospital", "name": "Songkramok Badhi Hospital" }, "geometry": { "type": "Point", "coordinates": [ 90.4052251, 23.7740437 ] } },
{ "type": "Feature", "properties": { "osm_id": "3795800904", "code": 2110, "fclass": "hospital", "name": "Sah Somie nagoi community clinic" }, "geometry": { "type": "Point", "coordinates": [ 91.8521737, 22.3184273 ] } },
{ "type": "Feature", "properties": { "osm_id": "3797620952", "code": 2110, "fclass": "hospital", "name": "ইসলামী ব্যাংক কেন্দ্রীয় হাসপাতাল" }, "geometry": { "type": "Point", "coordinates": [ 90.4098236, 23.7375744 ] } },
{ "type": "Feature", "properties": { "osm_id": "3797662116", "code": 2110, "fclass": "hospital", "name": "বারডেম জেনারেল হাসপাতাল ২" }, "geometry": { "type": "Point", "coordinates": [ 90.4061085, 23.7317089 ] } },
{ "type": "Feature", "properties": { "osm_id": "3810938213", "code": 2110, "fclass": "hospital", "name": "তারা মেডিকেল সেন্টার" }, "geometry": { "type": "Point", "coordinates": [ 90.371355, 23.8151865 ] } },
{ "type": "Feature", "properties": { "osm_id": "3814963528", "code": 2110, "fclass": "hospital", "name": "Niramoy Clinic" }, "geometry": { "type": "Point", "coordinates": [ 89.6304735, 23.0415561 ] } },
{ "type": "Feature", "properties": { "osm_id": "3872451348", "code": 2110, "fclass": "hospital", "name": "Cox's Bazar Medical College Hospital" }, "geometry": { "type": "Point", "coordinates": [ 92.0154214, 21.4239318 ] } },
{ "type": "Feature", "properties": { "osm_id": "3877633938", "code": 2110, "fclass": "hospital", "name": "ইসলামিয়া হাসপাতাল" }, "geometry": { "type": "Point", "coordinates": [ 90.3703661, 22.6885158 ] } },
{ "type": "Feature", "properties": { "osm_id": "3889036052", "code": 2110, "fclass": "hospital", "name": "Eastern Medical College & Hospital" }, "geometry": { "type": "Point", "coordinates": [ 91.0731361, 23.4789692 ] } },
{ "type": "Feature", "properties": { "osm_id": "3907717965", "code": 2110, "fclass": "hospital", "name": "Uttara Cresent Hospital" }, "geometry": { "type": "Point", "coordinates": [ 90.3955096, 23.8668616 ] } },
{ "type": "Feature", "properties": { "osm_id": "3923731153", "code": 2110, "fclass": "hospital", "name": "Munshigonj General Hospital" }, "geometry": { "type": "Point", "coordinates": [ 90.5309553, 23.5543665 ] } },
{ "type": "Feature", "properties": { "osm_id": "3924039899", "code": 2110, "fclass": "hospital", "name": "Popular General Hospital" }, "geometry": { "type": "Point", "coordinates": [ 90.3898363, 23.5504163 ] } },
{ "type": "Feature", "properties": { "osm_id": "4077212339", "code": 2110, "fclass": "hospital", "name": "Nagor Health Care 2" }, "geometry": { "type": "Point", "coordinates": [ 90.4047963, 23.7514278 ] } },
{ "type": "Feature", "properties": { "osm_id": "4077212341", "code": 2110, "fclass": "hospital", "name": "Nari Maitree" }, "geometry": { "type": "Point", "coordinates": [ 90.4048592, 23.7512263 ] } },
{ "type": "Feature", "properties": { "osm_id": "4092034085", "code": 2110, "fclass": "hospital", "name": "Malancha Govt. Hospital" }, "geometry": { "type": "Point", "coordinates": [ 90.3472974, 23.7062422 ] } },
{ "type": "Feature", "properties": { "osm_id": "4206412116", "code": 2110, "fclass": "hospital", "name": "Medinova Hospital" }, "geometry": { "type": "Point", "coordinates": [ 90.3674517, 23.8065469 ] } },
{ "type": "Feature", "properties": { "osm_id": "4310966038", "code": 2110, "fclass": "hospital", "name": "" }, "geometry": { "type": "Point", "coordinates": [ 92.320855, 20.6317761 ] } },
{ "type": "Feature", "properties": { "osm_id": "4312345867", "code": 2110, "fclass": "hospital", "name": "" }, "geometry": { "type": "Point", "coordinates": [ 90.8607436, 23.1080433 ] } },
{ "type": "Feature", "properties": { "osm_id": "4315672008", "code": 2110, "fclass": "hospital", "name": "Good Heal" }, "geometry": { "type": "Point", "coordinates": [ 91.0899083, 22.87208 ] } },
{ "type": "Feature", "properties": { "osm_id": "4316679406", "code": 2110, "fclass": "hospital", "name": "Ramgonj Adunik Hospital" }, "geometry": { "type": "Point", "coordinates": [ 90.8601959, 23.1030897 ] } },
{ "type": "Feature", "properties": { "osm_id": "4322832184", "code": 2110, "fclass": "hospital", "name": "Akumunnessa Eye Clinic(আকুমুন্নেসা আই ক্লিনিক)" }, "geometry": { "type": "Point", "coordinates": [ 90.3660545, 23.8182452 ] } },
{ "type": "Feature", "properties": { "osm_id": "4322832764", "code": 2110, "fclass": "hospital", "name": "ইসলামী ব্যাংক হাসপাতাল" }, "geometry": { "type": "Point", "coordinates": [ 90.3654856, 23.8195104 ] } },
{ "type": "Feature", "properties": { "osm_id": "4322833430", "code": 2110, "fclass": "hospital", "name": "ফিজিওথেরাপি সেন্টার" }, "geometry": { "type": "Point", "coordinates": [ 90.3663789, 23.8177023 ] } },
{ "type": "Feature", "properties": { "osm_id": "4322833433", "code": 2110, "fclass": "hospital", "name": "shishu Hospital(শিশু হাসপাতাল)" }, "geometry": { "type": "Point", "coordinates": [ 90.3730252, 23.8212392 ] } },
{ "type": "Feature", "properties": { "osm_id": "4331663674", "code": 2110, "fclass": "hospital", "name": "BRAC Metarnity Centre(ব্রাক মেটারনিটি সেন্টার)" }, "geometry": { "type": "Point", "coordinates": [ 90.3732098, 23.8173443 ] } },
{ "type": "Feature", "properties": { "osm_id": "4331663684", "code": 2110, "fclass": "hospital", "name": "Dr. Priyanka Aziz Chamber(ডাঃ প্রিয়াংকা আজিজ চেম্বার)" }, "geometry": { "type": "Point", "coordinates": [ 90.3740054, 23.8155046 ] } },
{ "type": "Feature", "properties": { "osm_id": "4339288289", "code": 2110, "fclass": "hospital", "name": "Nargis Memorial Hospital (Pvt) Ltd." }, "geometry": { "type": "Point", "coordinates": [ 89.572642, 22.8096271 ] } },
{ "type": "Feature", "properties": { "osm_id": "4348318005", "code": 2110, "fclass": "hospital", "name": "Prime Hospital" }, "geometry": { "type": "Point", "coordinates": [ 91.09171, 22.8718282 ] } },
{ "type": "Feature", "properties": { "osm_id": "4357401918", "code": 2110, "fclass": "hospital", "name": "" }, "geometry": { "type": "Point", "coordinates": [ 90.3800946, 23.7552277 ] } },
{ "type": "Feature", "properties": { "osm_id": "4361747694", "code": 2110, "fclass": "hospital", "name": "Modern Physiotherapy" }, "geometry": { "type": "Point", "coordinates": [ 90.3814159, 23.7394982 ] } },
{ "type": "Feature", "properties": { "osm_id": "4361780506", "code": 2110, "fclass": "hospital", "name": "OHCL" }, "geometry": { "type": "Point", "coordinates": [ 90.3802694, 23.7387316 ] } },
{ "type": "Feature", "properties": { "osm_id": "4365087444", "code": 2110, "fclass": "hospital", "name": "pharmacy" }, "geometry": { "type": "Point", "coordinates": [ 90.9927378, 23.7425942 ] } },
{ "type": "Feature", "properties": { "osm_id": "4365113104", "code": 2110, "fclass": "hospital", "name": "DOYAMOY PHARMACY" }, "geometry": { "type": "Point", "coordinates": [ 91.0027708, 23.7441573 ] } },
{ "type": "Feature", "properties": { "osm_id": "4365113694", "code": 2110, "fclass": "hospital", "name": "SRI KISNA PHARMACY" }, "geometry": { "type": "Point", "coordinates": [ 91.0029587, 23.7440833 ] } },
{ "type": "Feature", "properties": { "osm_id": "4372209895", "code": 2110, "fclass": "hospital", "name": "" }, "geometry": { "type": "Point", "coordinates": [ 91.8249135, 22.3582562 ] } },
{ "type": "Feature", "properties": { "osm_id": "4381071794", "code": 2110, "fclass": "hospital", "name": "" }, "geometry": { "type": "Point", "coordinates": [ 90.4123789, 23.7482183 ] } },
{ "type": "Feature", "properties": { "osm_id": "4381094290", "code": 2110, "fclass": "hospital", "name": "" }, "geometry": { "type": "Point", "coordinates": [ 90.4123777, 23.7481756 ] } },
{ "type": "Feature", "properties": { "osm_id": "4381975631", "code": 2110, "fclass": "hospital", "name": "Family Dentist" }, "geometry": { "type": "Point", "coordinates": [ 90.4160348, 23.743883 ] } },
{ "type": "Feature", "properties": { "osm_id": "4388781962", "code": 2110, "fclass": "hospital", "name": "Nibedita General Hospital" }, "geometry": { "type": "Point", "coordinates": [ 90.4159896, 23.7179419 ] } },
{ "type": "Feature", "properties": { "osm_id": "4388841143", "code": 2110, "fclass": "hospital", "name": "বার্ডেম হাসপাতাল" }, "geometry": { "type": "Point", "coordinates": [ 90.4163756, 23.7160002 ] } },
{ "type": "Feature", "properties": { "osm_id": "4388842951", "code": 2110, "fclass": "hospital", "name": "" }, "geometry": { "type": "Point", "coordinates": [ 89.2907846, 25.7350465 ] } },
{ "type": "Feature", "properties": { "osm_id": "4388870973", "code": 2110, "fclass": "hospital", "name": "Health Care" }, "geometry": { "type": "Point", "coordinates": [ 90.4165136, 23.7194239 ] } },
{ "type": "Feature", "properties": { "osm_id": "4389406404", "code": 2110, "fclass": "hospital", "name": "ইসলামি ব্যাংক হাসপাতাল ভবন ৫" }, "geometry": { "type": "Point", "coordinates": [ 90.4205869, 23.7396681 ] } },
{ "type": "Feature", "properties": { "osm_id": "4389421503", "code": 2110, "fclass": "hospital", "name": "প্যান প্যাসিফিক হাসপাতাল" }, "geometry": { "type": "Point", "coordinates": [ 90.4222603, 23.7380452 ] } },
{ "type": "Feature", "properties": { "osm_id": "4407994596", "code": 2110, "fclass": "hospital", "name": "Dr Ainul Islam Khan Chamber(ড আইনুল ইসলাম চেম্বার)" }, "geometry": { "type": "Point", "coordinates": [ 90.3688928, 23.823019 ] } },
{ "type": "Feature", "properties": { "osm_id": "4407994598", "code": 2110, "fclass": "hospital", "name": "Dr Nighat Rahman Chamber(ড নিঘাত রহমান)" }, "geometry": { "type": "Point", "coordinates": [ 90.3689304, 23.8228712 ] } },
{ "type": "Feature", "properties": { "osm_id": "4407994599", "code": 2110, "fclass": "hospital", "name": "Dr Sayeda Dil Afroz Chamber(ড সায়েদা দিল আফরোজ)" }, "geometry": { "type": "Point", "coordinates": [ 90.368862, 23.8230876 ] } },
{ "type": "Feature", "properties": { "osm_id": "4407994680", "code": 2110, "fclass": "hospital", "name": "Popular Medicine Corner (পপুলার মেডিসিন কর্নার)" }, "geometry": { "type": "Point", "coordinates": [ 90.3662785, 23.8268842 ] } },
{ "type": "Feature", "properties": { "osm_id": "4407994683", "code": 2110, "fclass": "hospital", "name": "Rabeya Maternity(রাবেয়া ম্যাটারনিটি)" }, "geometry": { "type": "Point", "coordinates": [ 90.3648013, 23.8265626 ] } },
{ "type": "Feature", "properties": { "osm_id": "4407994807", "code": 2110, "fclass": "hospital", "name": "Shishir Medical Hall(শিশির মেডিক্যাল হল)" }, "geometry": { "type": "Point", "coordinates": [ 90.368929, 23.8228939 ] } },
{ "type": "Feature", "properties": { "osm_id": "4410495892", "code": 2110, "fclass": "hospital", "name": "Ayesha Memorial Hospital" }, "geometry": { "type": "Point", "coordinates": [ 90.3951924, 23.77499 ] } },
{ "type": "Feature", "properties": { "osm_id": "4430828491", "code": 2110, "fclass": "hospital", "name": "" }, "geometry": { "type": "Point", "coordinates": [ 90.4010657, 23.7474961 ] } },
{ "type": "Feature", "properties": { "osm_id": "4432181527", "code": 2110, "fclass": "hospital", "name": "Alok health Care(আলোক হেলথ কেয়ার)" }, "geometry": { "type": "Point", "coordinates": [ 90.3640549, 23.8234676 ] } },