{
"type": "FeatureCollection",
"name": "schools_bd",
"crs": { "type": "name", "properties": { "name": "urn:ogc:def:crs:OGC::CRS84" } },
"features": [
{ "type": "Feature", "properties": { "osm_id": "260734600", "code": 2082, "fclass": "school", "name": "International School Dhaka" }, "geometry": { "type": "Point", "coordinates": [ 90.4313685, 23.8113455 ] } },
{ "type": "Feature", "properties": { "osm_id": "260734603", "code": 2082, "fclass": "school", "name": "American International School / Dhaka" }, "geometry": { "type": "Point", "coordinates": [ 90.4192438, 23.8010357 ] } },
{ "type": "Feature", "properties": { "osm_id": "266105887", "code": 2082, "fclass": "school", "name": "আইডিয়াল স্কুল অ্যান্ড কলেজ" }, "geometry": { "type": "Point", "coordinates": [ 90.4227506, 23.735459 ] } },
{ "type": "Feature", "properties": { "osm_id": "266105919", "code": 2082, "fclass": "school", "name": "Motijheel Model High School and College" }, "geometry": { "type": "Point", "coordinates": [ 90.4240343, 23.7329568 ] } },
{ "type": "Feature", "properties": { "osm_id": "266877239", "code": 2084, "fclass": "college", "name": "রাজউক উত্তরা মডেল কলেজ" }, "geometry": { "type": "Point", "coordinates": [ 90.4018142, 23.8705531 ] } },
{ "type": "Feature", "properties": { "osm_id": "363468052", "code": 2082, "fclass": "school", "name": "উত্তরা হাই স্কুল এন্ড কলেজ" }, "geometry": { "type": "Point", "coordinates": [ 90.3971868, 23.8712011 ] } },
{ "type": "Feature", "properties": { "osm_id": "364417860", "code": 2084, "fclass": "college", "name": "Graphic Art Institute" }, "geometry": { "type": "Point", "coordinates": [ 90.3650819, 23.7536801 ] } },
{ "type": "Feature", "properties": { "osm_id": "364419726", "code": 2081, "fclass": "university", "name": "State University of Bangladesh" }, "geometry": { "type": "Point", "coordinates": [ 90.367356, 23.75154 ] } },
{ "type": "Feature", "properties": { "osm_id": "364421868", "code": 2081, "fclass": "university", "name": "Stamford University" }, "geometry": { "type": "Point", "coordinates": [ 90.3703175, 23.7472743 ] } },
{ "type": "Feature", "properties": { "osm_id": "364422510", "code": 2081, "fclass": "university", "name": "Stamford University" }, "geometry": { "type": "Point", "coordinates": [ 90.3714332, 23.7456368 ] } },
{ "type": "Feature", "properties": { "osm_id": "364423465", "code": 2081, "fclass": "university", "name": "Darul Ihsan University" }, "geometry": { "type": "Point", "coordinates": [ 90.3755557, 23.7468402 ] } },
{ "type": "Feature", "properties": { "osm_id": "368385596", "code": 2082, "fclass": "school", "name": "বি এন ইসলামী উচ্চ বিদ্যালয়" }, "geometry": { "type": "Point", "coordinates": [ 92.3256049, 20.6335346 ] } },
{ "type": "Feature", "properties": { "osm_id": "368844285", "code": 2082, "fclass": "school", "name": "Teknaf Rifles Public School" }, "geometry": { "type": "Point", "coordinates": [ 92.2815173, 20.8730509 ] } },
{ "type": "Feature", "properties": { "osm_id": "368845247", "code": 2082, "fclass": "school", "name": "Primary School cum Cyclone Center" }, "geometry": { "type": "Point", "coordinates": [ 92.1980898, 20.9846447 ] } },
{ "type": "Feature", "properties": { "osm_id": "373077652", "code": 2082, "fclass": "school", "name": "Dhanmondi Girls School" }, "geometry": { "type": "Point", "coordinates": [ 90.3773738, 23.7489744 ] } },
{ "type": "Feature", "properties": { "osm_id": "387552313", "code": 2082, "fclass": "school", "name": "লালমাটিয়া বালক উচ্চ বিদ্যালয়" }, "geometry": { "type": "Point", "coordinates": [ 90.3711962, 23.7578281 ] } },
{ "type": "Feature", "properties": { "osm_id": "387552314", "code": 2082, "fclass": "school", "name": "Lalmatia Girls High School" }, "geometry": { "type": "Point", "coordinates": [ 90.3682212, 23.7550339 ] } },
{ "type": "Feature", "properties": { "osm_id": "387552315", "code": 2082, "fclass": "school", "name": "Lalmatia Mohila College" }, "geometry": { "type": "Point", "coordinates": [ 90.3685893, 23.7557152 ] } },
{ "type": "Feature", "properties": { "osm_id": "387552421", "code": 2082, "fclass": "school", "name": "Mokbul Hossain Degree College" }, "geometry": { "type": "Point", "coordinates": [ 90.3607508, 23.754077 ] } },
{ "type": "Feature", "properties": { "osm_id": "391699655", "code": 2082, "fclass": "school", "name": "Aga Khan School" }, "geometry": { "type": "Point", "coordinates": [ 90.4023366, 23.8609894 ] } },
{ "type": "Feature", "properties": { "osm_id": "391699659", "code": 2082, "fclass": "school", "name": "Int. Turkish Hope High School" }, "geometry": { "type": "Point", "coordinates": [ 90.4030576, 23.8618528 ] } },
{ "type": "Feature", "properties": { "osm_id": "395066534", "code": 2084, "fclass": "college", "name": "কবি নজরুল সরকারি কলেজ" }, "geometry": { "type": "Point", "coordinates": [ 90.4129323, 23.7095076 ] } },
{ "type": "Feature", "properties": { "osm_id": "418811438", "code": 2082, "fclass": "school", "name": "Maple Bear School" }, "geometry": { "type": "Point", "coordinates": [ 90.4186085, 23.7856478 ] } },
{ "type": "Feature", "properties": { "osm_id": "513000487", "code": 2082, "fclass": "school", "name": "Muslim High School" }, "geometry": { "type": "Point", "coordinates": [ 90.4128448, 23.7091051 ] } },
{ "type": "Feature", "properties": { "osm_id": "513012558", "code": 2082, "fclass": "school", "name": "Dhaka Collegiate School" }, "geometry": { "type": "Point", "coordinates": [ 90.410488, 23.7077555 ] } },
{ "type": "Feature", "properties": { "osm_id": "619030745", "code": 2082, "fclass": "school", "name": "Siddeshwari Boys School" }, "geometry": { "type": "Point", "coordinates": [ 90.4108734, 23.7450271 ] } },
{ "type": "Feature", "properties": { "osm_id": "619037739", "code": 2082, "fclass": "school", "name": "Shahid Nabi High School" }, "geometry": { "type": "Point", "coordinates": [ 90.4220772, 23.7193686 ] } },
{ "type": "Feature", "properties": { "osm_id": "655944225", "code": 2082, "fclass": "school", "name": "K.L.Jubilee High School & College" }, "geometry": { "type": "Point", "coordinates": [ 90.4127366, 23.7054631 ] } },
{ "type": "Feature", "properties": { "osm_id": "702518270", "code": 2082, "fclass": "school", "name": "Nirala Ideal School" }, "geometry": { "type": "Point", "coordinates": [ 89.5540138, 22.7974462 ] } },
{ "type": "Feature", "properties": { "osm_id": "702560869", "code": 2082, "fclass": "school", "name": "Primary Teachers Training Institute (PTI)" }, "geometry": { "type": "Point", "coordinates": [ 89.5655253, 22.8081327 ] } },
{ "type": "Feature", "properties": { "osm_id": "702560870", "code": 2082, "fclass": "school", "name": "St. Joseph High School" }, "geometry": { "type": "Point", "coordinates": [ 89.5669517, 22.8088003 ] } },
{ "type": "Feature", "properties": { "osm_id": "820515878", "code": 2084, "fclass": "college", "name": "Tolaram College" }, "geometry": { "type": "Point", "coordinates": [ 90.4974148, 23.6232584 ] } },
{ "type": "Feature", "properties": { "osm_id": "830010850", "code": 2081, "fclass": "university", "name": "BUET ME Building" }, "geometry": { "type": "Point", "coordinates": [ 90.3924827, 23.7259395 ] } },
{ "type": "Feature", "properties": { "osm_id": "830016493", "code": 2081, "fclass": "university", "name": "BUET Old Academic Building (OAB)" }, "geometry": { "type": "Point", "coordinates": [ 90.3927617, 23.7274637 ] } },
{ "type": "Feature", "properties": { "osm_id": "830018556", "code": 2081, "fclass": "university", "name": "BUET Registrar Building" }, "geometry": { "type": "Point", "coordinates": [ 90.3934621, 23.7259842 ] } },
{ "type": "Feature", "properties": { "osm_id": "830047284", "code": 2081, "fclass": "university", "name": "ECE Building, BUET" }, "geometry": { "type": "Point", "coordinates": [ 90.3884407, 23.7266825 ] } },
{ "type": "Feature", "properties": { "osm_id": "830069053", "code": 2084, "fclass": "college", "name": "ঢাকা মেডিকেল কলেজ" }, "geometry": { "type": "Point", "coordinates": [ 90.3972526, 23.7264545 ] } },
{ "type": "Feature", "properties": { "osm_id": "842546871", "code": 2082, "fclass": "school", "name": "Chittagong Govt. High School" }, "geometry": { "type": "Point", "coordinates": [ 91.8367202, 22.3539739 ] } },
{ "type": "Feature", "properties": { "osm_id": "842550423", "code": 2082, "fclass": "school", "name": "Dr Khastagir's Girls' High School" }, "geometry": { "type": "Point", "coordinates": [ 91.8342718, 22.3477247 ] } },
{ "type": "Feature", "properties": { "osm_id": "1028350774", "code": 2082, "fclass": "school", "name": "B.N College Khulna" }, "geometry": { "type": "Point", "coordinates": [ 89.5298469, 22.8509383 ] } },
{ "type": "Feature", "properties": { "osm_id": "1119028027", "code": 2081, "fclass": "university", "name": "Dept. of Architecture Building" }, "geometry": { "type": "Point", "coordinates": [ 90.3910421, 23.7275171 ] } },
{ "type": "Feature", "properties": { "osm_id": "1121485994", "code": 2082, "fclass": "school", "name": "Engineering University Higher Secondary School" }, "geometry": { "type": "Point", "coordinates": [ 90.3935719, 23.7277114 ] } },
{ "type": "Feature", "properties": { "osm_id": "1126077961", "code": 2081, "fclass": "university", "name": "BUET DSW Building" }, "geometry": { "type": "Point", "coordinates": [ 90.3940256, 23.7251386 ] } },
{ "type": "Feature", "properties": { "osm_id": "1213696939", "code": 2082, "fclass": "school", "name": "Chittagong Collegiate School and College" }, "geometry": { "type": "Point", "coordinates": [ 91.8252912, 22.333087 ] } },
{ "type": "Feature", "properties": { "osm_id": "1255160790", "code": 2082, "fclass": "school", "name": "Golden Eagle" }, "geometry": { "type": "Point", "coordinates": [ 90.392316, 23.7774883 ] } },
{ "type": "Feature", "properties": { "osm_id": "1419439253", "code": 2082, "fclass": "school", "name": "Pogose School" }, "geometry": { "type": "Point", "coordinates": [ 90.410258, 23.709365 ] } },
{ "type": "Feature", "properties": { "osm_id": "1496151709", "code": 2082, "fclass": "school", "name": "Agrabad Govt. Colony Girls High School" }, "geometry": { "type": "Point", "coordinates": [ 91.8091755, 22.3271315 ] } },
{ "type": "Feature", "properties": { "osm_id": "1621004493", "code": 2084, "fclass": "college", "name": "" }, "geometry": { "type": "Point", "coordinates": [ 91.173397, 23.4655128 ] } },
{ "type": "Feature", "properties": { "osm_id": "1621004498", "code": 2082, "fclass": "school", "name": "Nawab Faizunnesa Girls High School" }, "geometry": { "type": "Point", "coordinates": [ 91.1771794, 23.4627051 ] } },
{ "type": "Feature", "properties": { "osm_id": "1621004499", "code": 2082, "fclass": "school", "name": "Our Lady of Fatima Girls High School" }, "geometry": { "type": "Point", "coordinates": [ 91.1800519, 23.4672286 ] } },
{ "type": "Feature", "properties": { "osm_id": "1621214372", "code": 2082, "fclass": "school", "name": "Comilla Modern School" }, "geometry": { "type": "Point", "coordinates": [ 91.1758455, 23.4592152 ] } },
{ "type": "Feature", "properties": { "osm_id": "1664986100", "code": 2082, "fclass": "school", "name": "কুমিল্লা জিলা স্কুল" }, "geometry": { "type": "Point", "coordinates": [ 91.180738, 23.4631264 ] } },
{ "type": "Feature", "properties": { "osm_id": "1723621140", "code": 2082, "fclass": "school", "name": "Mother Teresa Catholic School" }, "geometry": { "type": "Point", "coordinates": [ 90.3634175, 23.8245798 ] } },
{ "type": "Feature", "properties": { "osm_id": "1724614209", "code": 2081, "fclass": "university", "name": "Northern University of Business and Technology Khulna" }, "geometry": { "type": "Point", "coordinates": [ 89.5520198, 22.8222846 ] } },
{ "type": "Feature", "properties": { "osm_id": "1735387947", "code": 2082, "fclass": "school", "name": "Iranian International School" }, "geometry": { "type": "Point", "coordinates": [ 90.3786179, 23.7395864 ] } },
{ "type": "Feature", "properties": { "osm_id": "1748374114", "code": 2082, "fclass": "school", "name": "Govt Girls College" }, "geometry": { "type": "Point", "coordinates": [ 92.2088724, 22.2179327 ] } },
{ "type": "Feature", "properties": { "osm_id": "1789214936", "code": 2082, "fclass": "school", "name": "Bangladesh International School & College" }, "geometry": { "type": "Point", "coordinates": [ 90.3946711, 23.7813225 ] } },
{ "type": "Feature", "properties": { "osm_id": "1800452207", "code": 2082, "fclass": "school", "name": "Airport High School" }, "geometry": { "type": "Point", "coordinates": [ 91.9684281, 21.4490601 ] } },
{ "type": "Feature", "properties": { "osm_id": "1801057628", "code": 2082, "fclass": "school", "name": "Cox's Bazar Police Line High School" }, "geometry": { "type": "Point", "coordinates": [ 91.9737137, 21.4447606 ] } },
{ "type": "Feature", "properties": { "osm_id": "1841427112", "code": 2081, "fclass": "university", "name": "Fine Arts Institute" }, "geometry": { "type": "Point", "coordinates": [ 92.1801418, 22.6519088 ] } },
{ "type": "Feature", "properties": { "osm_id": "1848486960", "code": 2082, "fclass": "school", "name": "Rani Doyamoyi High School" }, "geometry": { "type": "Point", "coordinates": [ 92.1714748, 22.65916 ] } },
{ "type": "Feature", "properties": { "osm_id": "1848626345", "code": 2082, "fclass": "school", "name": "Bangladesh Elementery School" }, "geometry": { "type": "Point", "coordinates": [ 91.8230185, 22.3573238 ] } },
{ "type": "Feature", "properties": { "osm_id": "1934310080", "code": 2082, "fclass": "school", "name": "Kazirbazar Primary School" }, "geometry": { "type": "Point", "coordinates": [ 91.7227437, 24.5748429 ] } },
{ "type": "Feature", "properties": { "osm_id": "1934310081", "code": 2082, "fclass": "school", "name": "Kazirbazar Aftab Uddin High School" }, "geometry": { "type": "Point", "coordinates": [ 91.7225559, 24.5745014 ] } },
{ "type": "Feature", "properties": { "osm_id": "1934371659", "code": 2082, "fclass": "school", "name": "Sumari Primary School" }, "geometry": { "type": "Point", "coordinates": [ 91.7207428, 24.5764723 ] } },
{ "type": "Feature", "properties": { "osm_id": "1950823029", "code": 2082, "fclass": "school", "name": "Rangpur Medical College" }, "geometry": { "type": "Point", "coordinates": [ 89.233973, 25.7667045 ] } },
{ "type": "Feature", "properties": { "osm_id": "1950827216", "code": 2082, "fclass": "school", "name": "Cant Pubic school And College" }, "geometry": { "type": "Point", "coordinates": [ 89.2297968, 25.7642372 ] } },
{ "type": "Feature", "properties": { "osm_id": "1950831963", "code": 2082, "fclass": "school", "name": "Lalkuthi School" }, "geometry": { "type": "Point", "coordinates": [ 89.235475, 25.7588973 ] } },
{ "type": "Feature", "properties": { "osm_id": "1950833430", "code": 2082, "fclass": "school", "name": "" }, "geometry": { "type": "Point", "coordinates": [ 89.236494, 25.7574028 ] } },
{ "type": "Feature", "properties": { "osm_id": "1950835348", "code": 2082, "fclass": "school", "name": "Rangpur Zila School" }, "geometry": { "type": "Point", "coordinates": [ 89.2428853, 25.7577623 ] } },
{ "type": "Feature", "properties": { "osm_id": "1950838109", "code": 2082, "fclass": "school", "name": "Police Line School And College" }, "geometry": { "type": "Point", "coordinates": [ 89.249105, 25.75704 ] } },
{ "type": "Feature", "properties": { "osm_id": "1950839384", "code": 2082, "fclass": "school", "name": "Technical School And College" }, "geometry": { "type": "Point", "coordinates": [ 89.2491965, 25.7532532 ] } },
{ "type": "Feature", "properties": { "osm_id": "1950843387", "code": 2082, "fclass": "school", "name": "Koilas Ranjon School" }, "geometry": { "type": "Point", "coordinates": [ 89.2536015, 25.7524861 ] } },
{ "type": "Feature", "properties": { "osm_id": "1962568044", "code": 2082, "fclass": "school", "name": "St. Mary's Church and School" }, "geometry": { "type": "Point", "coordinates": [ 91.8339256, 22.3488342 ] } },
{ "type": "Feature", "properties": { "osm_id": "1962569806", "code": 2082, "fclass": "school", "name": "Kazem Ali High School" }, "geometry": { "type": "Point", "coordinates": [ 91.83683, 22.3514114 ] } },
{ "type": "Feature", "properties": { "osm_id": "1962590784", "code": 2082, "fclass": "school", "name": "Enayet Bazar Ladies' College" }, "geometry": { "type": "Point", "coordinates": [ 91.8297386, 22.3415121 ] } },
{ "type": "Feature", "properties": { "osm_id": "1963026589", "code": 2081, "fclass": "university", "name": "Engineers' Institute" }, "geometry": { "type": "Point", "coordinates": [ 91.8205547, 22.3468608 ] } },
{ "type": "Feature", "properties": { "osm_id": "1963071401", "code": 2084, "fclass": "college", "name": "Government College of Commerce, Commerce College Road, Chattogram" }, "geometry": { "type": "Point", "coordinates": [ 91.8173495, 22.3260108 ] } },
{ "type": "Feature", "properties": { "osm_id": "1963084251", "code": 2082, "fclass": "school", "name": "Bangladesh Women's Association (BWA) School" }, "geometry": { "type": "Point", "coordinates": [ 91.8223572, 22.3535686 ] } },
{ "type": "Feature", "properties": { "osm_id": "1963087522", "code": 2084, "fclass": "college", "name": "Omargani MES College " }, "geometry": { "type": "Point", "coordinates": [ 91.8163276, 22.360554 ] } },
{ "type": "Feature", "properties": { "osm_id": "1963088111", "code": 2082, "fclass": "school", "name": "Ispahani Public School and College, Ispahani jeti road, Mohora, Chandgoan" }, "geometry": { "type": "Point", "coordinates": [ 91.8161423, 22.3598658 ] } },
{ "type": "Feature", "properties": { "osm_id": "1963089777", "code": 2084, "fclass": "college", "name": "Chittagong Government Womens College, Chittagong Government Girls High School Rd, Chattogram" }, "geometry": { "type": "Point", "coordinates": [ 91.8159092, 22.3627098 ] } },
{ "type": "Feature", "properties": { "osm_id": "1963096794", "code": 2082, "fclass": "school", "name": "MES School " }, "geometry": { "type": "Point", "coordinates": [ 91.8362188, 22.3406289 ] } },
{ "type": "Feature", "properties": { "osm_id": "1966457230", "code": 2082, "fclass": "school", "name": "Shiroil Government High School Field, Rajshahi" }, "geometry": { "type": "Point", "coordinates": [ 88.6105886, 24.3701187 ] } },
{ "type": "Feature", "properties": { "osm_id": "1969788209", "code": 2082, "fclass": "school", "name": "University of Rajshahi" }, "geometry": { "type": "Point", "coordinates": [ 88.6376213, 24.3683875 ] } },
{ "type": "Feature", "properties": { "osm_id": "2070359693", "code": 2082, "fclass": "school", "name": "Malumghat Christian School" }, "geometry": { "type": "Point", "coordinates": [ 92.0732937, 21.6828672 ] } },
{ "type": "Feature", "properties": { "osm_id": "2070359707", "code": 2084, "fclass": "college", "name": "Memorial Christian College of Health Science" }, "geometry": { "type": "Point", "coordinates": [ 92.0750967, 21.6834496 ] } },
{ "type": "Feature", "properties": { "osm_id": "2070359710", "code": 2082, "fclass": "school", "name": "Memorial Christian School (Primary)" }, "geometry": { "type": "Point", "coordinates": [ 92.0758809, 21.6831497 ] } },
{ "type": "Feature", "properties": { "osm_id": "2277895422", "code": 2082, "fclass": "school", "name": "Pogaldigha Primary Scool" }, "geometry": { "type": "Point", "coordinates": [ 89.8229849, 24.6842423 ] } },
{ "type": "Feature", "properties": { "osm_id": "2277900482", "code": 2082, "fclass": "school", "name": "Musuddi Afaz Uddin High School" }, "geometry": { "type": "Point", "coordinates": [ 89.899131, 24.6730233 ] } },
{ "type": "Feature", "properties": { "osm_id": "2284316172", "code": 2081, "fclass": "university", "name": "Deparrtment of Soil Science" }, "geometry": { "type": "Point", "coordinates": [ 91.7810008, 22.4676078 ] } },
{ "type": "Feature", "properties": { "osm_id": "2302701701", "code": 2082, "fclass": "school", "name": "Kulkandi High School" }, "geometry": { "type": "Point", "coordinates": [ 89.7157116, 25.1233973 ] } },
{ "type": "Feature", "properties": { "osm_id": "2303678012", "code": 2082, "fclass": "school", "name": "17non crucho bepari para shulcalipatomicbidara" }, "geometry": { "type": "Point", "coordinates": [ 89.947118, 24.931807 ] } },
{ "type": "Feature", "properties": { "osm_id": "2303691357", "code": 2082, "fclass": "school", "name": "Jeray" }, "geometry": { "type": "Point", "coordinates": [ 89.943319, 24.933248 ] } },
{ "type": "Feature", "properties": { "osm_id": "2303810109", "code": 2082, "fclass": "school", "name": "Jamalpur Highschool" }, "geometry": { "type": "Point", "coordinates": [ 89.940956, 24.93088 ] } },
{ "type": "Feature", "properties": { "osm_id": "2304451774", "code": 2082, "fclass": "school", "name": "" }, "geometry": { "type": "Point", "coordinates": [ 89.767778, 24.911661 ] } },
{ "type": "Feature", "properties": { "osm_id": "2304458537", "code": 2082, "fclass": "school", "name": "" }, "geometry": { "type": "Point", "coordinates": [ 89.734863, 24.935349 ] } },
{ "type": "Feature", "properties": { "osm_id": "2304746135", "code": 2082, "fclass": "school", "name": "" }, "geometry": { "type": "Point", "coordinates": [ 89.726208, 25.011692 ] } },
{ "type": "Feature", "properties": { "osm_id": "2304768733", "code": 2082, "fclass": "school", "name": "" }, "geometry": { "type": "Point", "coordinates": [ 89.733294, 25.029936 ] } },
{ "type": "Feature", "properties": { "osm_id": "2304963748", "code": 2082, "fclass": "school", "name": "" }, "geometry": { "type": "Point", "coordinates": [ 89.803707, 25.131304 ] } },
{ "type": "Feature", "properties": { "osm_id": "2305036772", "code": 2082, "fclass": "school", "name": "" }, "geometry": { "type": "Point", "coordinates": [ 89.858324, 24.9509 ] } },
{ "type": "Feature", "properties": { "osm_id": "2305800906", "code": 2082, "fclass": "school", "name": "" }, "geometry": { "type": "Point", "coordinates": [ 89.938103, 24.799248 ] } },
{ "type": "Feature", "properties": { "osm_id": "2305818760", "code": 2082, "fclass": "school", "name": "" }, "geometry": { "type": "Point", "coordinates": [ 89.972714, 24.483636 ] } },
{ "type": "Feature", "properties": { "osm_id": "2311120478", "code": 2082, "fclass": "school", "name": "Dewangonj Govt. High School" }, "geometry": { "type": "Point", "coordinates": [ 89.7657834, 25.1690695 ] } },
{ "type": "Feature", "properties": { "osm_id": "2311120900", "code": 2082, "fclass": "school", "name": "Dewangonj Primary School" }, "geometry": { "type": "Point", "coordinates": [ 89.7654937, 25.1682393 ] } },
{ "type": "Feature", "properties": { "osm_id": "2311122113", "code": 2082, "fclass": "school", "name": "Dewanjgonj Alia Madrasha" }, "geometry": { "type": "Point", "coordinates": [ 89.7633479, 25.1668507 ] } },
{ "type": "Feature", "properties": { "osm_id": "2320124389", "code": 2082, "fclass": "school", "name": "Oxford International School" }, "geometry": { "type": "Point", "coordinates": [ 90.3707311, 23.7538867 ] } },
{ "type": "Feature", "properties": { "osm_id": "2324541705", "code": 2082, "fclass": "school", "name": "Little Jewels School" }, "geometry": { "type": "Point", "coordinates": [ 91.8363905, 22.362836 ] } },
{ "type": "Feature", "properties": { "osm_id": "2325601267", "code": 2082, "fclass": "school", "name": "Little Jewels School" }, "geometry": { "type": "Point", "coordinates": [ 91.83682, 22.3617868 ] } },
{ "type": "Feature", "properties": { "osm_id": "2332023261", "code": 2082, "fclass": "school", "name": "Mastermind School" }, "geometry": { "type": "Point", "coordinates": [ 91.8298904, 22.3612454 ] } },
{ "type": "Feature", "properties": { "osm_id": "2334087538", "code": 2082, "fclass": "school", "name": "Rahmania High School" }, "geometry": { "type": "Point", "coordinates": [ 91.8315615, 22.3764103 ] } },
{ "type": "Feature", "properties": { "osm_id": "2339080784", "code": 2082, "fclass": "school", "name": "Aparna Charan City corporation Girl's High School" }, "geometry": { "type": "Point", "coordinates": [ 91.8319772, 22.3370099 ] } },
{ "type": "Feature", "properties": { "osm_id": "2339099561", "code": 2082, "fclass": "school", "name": "Maderbari Girl's High School" }, "geometry": { "type": "Point", "coordinates": [ 91.8240738, 22.3297622 ] } },
{ "type": "Feature", "properties": { "osm_id": "2339103824", "code": 2082, "fclass": "school", "name": "Baitush Sharaf Kamil Madrasha" }, "geometry": { "type": "Point", "coordinates": [ 91.8166494, 22.3362228 ] } },
{ "type": "Feature", "properties": { "osm_id": "2340245028", "code": 2082, "fclass": "school", "name": "Agrabad T&T Colony Primary School" }, "geometry": { "type": "Point", "coordinates": [ 91.8085384, 22.3277377 ] } },
{ "type": "Feature", "properties": { "osm_id": "2340294441", "code": 2082, "fclass": "school", "name": "Tigerpass Govt. Primary School" }, "geometry": { "type": "Point", "coordinates": [ 91.814096, 22.3417602 ] } },
{ "type": "Feature", "properties": { "osm_id": "2340428430", "code": 2081, "fclass": "university", "name": "Institute of Information Technology" }, "geometry": { "type": "Point", "coordinates": [ 90.3982682, 23.7289899 ] } },
{ "type": "Feature", "properties": { "osm_id": "2341499276", "code": 2082, "fclass": "school", "name": "East Nasirabad A.Jalil Primary School" }, "geometry": { "type": "Point", "coordinates": [ 91.8180442, 22.3695431 ] } },
{ "type": "Feature", "properties": { "osm_id": "2341948096", "code": 2081, "fclass": "university", "name": "BGC Trust University" }, "geometry": { "type": "Point", "coordinates": [ 91.8106842, 22.3805654 ] } },
{ "type": "Feature", "properties": { "osm_id": "2345800569", "code": 2084, "fclass": "college", "name": "সোনাপুর কলেজ" }, "geometry": { "type": "Point", "coordinates": [ 91.0996006, 22.8281912 ] } },
{ "type": "Feature", "properties": { "osm_id": "2345895991", "code": 2082, "fclass": "school", "name": "Ahmodia High School" }, "geometry": { "type": "Point", "coordinates": [ 91.101526, 22.8321928 ] } },
{ "type": "Feature", "properties": { "osm_id": "2345936713", "code": 2082, "fclass": "school", "name": "Noakhali Govt Girls High School" }, "geometry": { "type": "Point", "coordinates": [ 91.1019127, 22.8656711 ] } },
{ "type": "Feature", "properties": { "osm_id": "2345951692", "code": 2084, "fclass": "college", "name": "Noakhali Girls College" }, "geometry": { "type": "Point", "coordinates": [ 91.1044847, 22.8623535 ] } },
{ "type": "Feature", "properties": { "osm_id": "2352382625", "code": 2082, "fclass": "school", "name": "Shahid Fazlur Haque High School" }, "geometry": { "type": "Point", "coordinates": [ 89.2484632, 24.0062286 ] } },
{ "type": "Feature", "properties": { "osm_id": "2352385382", "code": 2082, "fclass": "school", "name": "RM Academy High School" }, "geometry": { "type": "Point", "coordinates": [ 89.2393601, 24.0103573 ] } },
{ "type": "Feature", "properties": { "osm_id": "2352385860", "code": 2084, "fclass": "college", "name": "Pabna Covt. Edward College" }, "geometry": { "type": "Point", "coordinates": [ 89.2395872, 24.0122726 ] } },
{ "type": "Feature", "properties": { "osm_id": "2365360956", "code": 2082, "fclass": "school", "name": "Rustam Ali Gulandasz High School" }, "geometry": { "type": "Point", "coordinates": [ 90.5459516, 24.4583165 ] } },
{ "type": "Feature", "properties": { "osm_id": "2388415251", "code": 2084, "fclass": "college", "name": "Abdul Hadee College" }, "geometry": { "type": "Point", "coordinates": [ 90.9512142, 22.6460476 ] } },
{ "type": "Feature", "properties": { "osm_id": "2389131430", "code": 2082, "fclass": "school", "name": "Munshiganj Girls High School" }, "geometry": { "type": "Point", "coordinates": [ 90.5329919, 23.5475883 ] } },
{ "type": "Feature", "properties": { "osm_id": "2393814299", "code": 2084, "fclass": "college", "name": "Jessore Commerce College" }, "geometry": { "type": "Point", "coordinates": [ 89.2205191, 23.1728774 ] } },
{ "type": "Feature", "properties": { "osm_id": "2397244826", "code": 2082, "fclass": "school", "name": "Hajipara Adorsho High School" }, "geometry": { "type": "Point", "coordinates": [ 88.4707514, 26.0239251 ] } },
{ "type": "Feature", "properties": { "osm_id": "2398439133", "code": 2082, "fclass": "school", "name": "Dhamoirhat Girls School" }, "geometry": { "type": "Point", "coordinates": [ 88.8549595, 25.1506408 ] } },
{ "type": "Feature", "properties": { "osm_id": "2403845145", "code": 2082, "fclass": "school", "name": "Canadian International School" }, "geometry": { "type": "Point", "coordinates": [ 90.4113061, 23.8030765 ] } },
{ "type": "Feature", "properties": { "osm_id": "2403845149", "code": 2082, "fclass": "school", "name": "Scholastica" }, "geometry": { "type": "Point", "coordinates": [ 90.4114027, 23.8028213 ] } },
{ "type": "Feature", "properties": { "osm_id": "2405703389", "code": 2082, "fclass": "school", "name": "সাবেরা সোবহান সরকারি বালিকা উচ্চ বিদ" }, "geometry": { "type": "Point", "coordinates": [ 91.110413, 23.9689723 ] } },
{ "type": "Feature", "properties": { "osm_id": "2405704103", "code": 2084, "fclass": "college", "name": "জামিয়া ইসলামিয়া ইউনুছিয়া মাদ্রাসা" }, "geometry": { "type": "Point", "coordinates": [ 91.1123011, 23.9721839 ] } },
{ "type": "Feature", "properties": { "osm_id": "2406086339", "code": 2082, "fclass": "school", "name": "Swarnakali High School" }, "geometry": { "type": "Point", "coordinates": [ 89.8246915, 23.0044316 ] } },
{ "type": "Feature", "properties": { "osm_id": "2406090600", "code": 2082, "fclass": "school", "name": "Binapani Girls' High School" }, "geometry": { "type": "Point", "coordinates": [ 89.8312963, 23.0077447 ] } },
{ "type": "Feature", "properties": { "osm_id": "2407077350", "code": 2082, "fclass": "school", "name": "Bamundi Government Primary School" }, "geometry": { "type": "Point", "coordinates": [ 88.8054504, 23.8903021 ] } },
{ "type": "Feature", "properties": { "osm_id": "2407488007", "code": 2082, "fclass": "school", "name": "Adarsha Boys High School" }, "geometry": { "type": "Point", "coordinates": [ 88.835198, 23.6387751 ] } },
{ "type": "Feature", "properties": { "osm_id": "2407518052", "code": 2082, "fclass": "school", "name": "Mujibnagar High School" }, "geometry": { "type": "Point", "coordinates": [ 88.6036721, 23.6650485 ] } },
{ "type": "Feature", "properties": { "osm_id": "2408419466", "code": 2082, "fclass": "school", "name": "BIAM School" }, "geometry": { "type": "Point", "coordinates": [ 90.7793632, 24.4436788 ] } },
{ "type": "Feature", "properties": { "osm_id": "2408650676", "code": 2082, "fclass": "school", "name": "Kulgaon City Corporation School and College, Chattogram - Rangamati-Khagrachari Highway, Chattogram" }, "geometry": { "type": "Point", "coordinates": [ 91.8193273, 22.4042182 ] } },
{ "type": "Feature", "properties": { "osm_id": "2408674333", "code": 2082, "fclass": "school", "name": "Bangladesh Navy School and College" }, "geometry": { "type": "Point", "coordinates": [ 91.7802358, 22.2911712 ] } },
{ "type": "Feature", "properties": { "osm_id": "2409431653", "code": 2084, "fclass": "college", "name": "Mohangonj Women's College" }, "geometry": { "type": "Point", "coordinates": [ 90.9799375, 24.8731566 ] } },
{ "type": "Feature", "properties": { "osm_id": "2409447172", "code": 2082, "fclass": "school", "name": "Nakla Shahriar Alim Madrasha" }, "geometry": { "type": "Point", "coordinates": [ 90.1791874, 24.9697216 ] } },
{ "type": "Feature", "properties": { "osm_id": "2409448161", "code": 2084, "fclass": "college", "name": "Chowdhury Sobrunnesa Mohila Degree College" }, "geometry": { "type": "Point", "coordinates": [ 90.1838134, 24.9674093 ] } },
{ "type": "Feature", "properties": { "osm_id": "2409462166", "code": 2082, "fclass": "school", "name": "Jk Pilot High School" }, "geometry": { "type": "Point", "coordinates": [ 90.0161107, 25.0103213 ] } },
{ "type": "Feature", "properties": { "osm_id": "2409469155", "code": 2084, "fclass": "college", "name": "Sherpur Agricultural College" }, "geometry": { "type": "Point", "coordinates": [ 90.0203505, 25.0199027 ] } },
{ "type": "Feature", "properties": { "osm_id": "2409469166", "code": 2082, "fclass": "school", "name": "Sherpur Government Victoria Academ" }, "geometry": { "type": "Point", "coordinates": [ 90.0181618, 25.0214631 ] } },
{ "type": "Feature", "properties": { "osm_id": "2410020276", "code": 2082, "fclass": "school", "name": "Mokter Hossain High School" }, "geometry": { "type": "Point", "coordinates": [ 90.6838848, 24.8701305 ] } },
{ "type": "Feature", "properties": { "osm_id": "2412032650", "code": 2082, "fclass": "school", "name": "Patia Adarsha High School" }, "geometry": { "type": "Point", "coordinates": [ 91.9807662, 22.293623 ] } },
{ "type": "Feature", "properties": { "osm_id": "2412056147", "code": 2084, "fclass": "college", "name": "বার আউলিয়া ডিগ্রি কলেজ" }, "geometry": { "type": "Point", "coordinates": [ 92.1035558, 22.0414706 ] } },
{ "type": "Feature", "properties": { "osm_id": "2412772678", "code": 2082, "fclass": "school", "name": "Phulpur Primary School" }, "geometry": { "type": "Point", "coordinates": [ 90.364025, 24.9565264 ] } },
{ "type": "Feature", "properties": { "osm_id": "2412773522", "code": 2082, "fclass": "school", "name": "Phulpur Girls School" }, "geometry": { "type": "Point", "coordinates": [ 90.3639555, 24.9558666 ] } },
{ "type": "Feature", "properties": { "osm_id": "2419821267", "code": 2084, "fclass": "college", "name": "Tangail Govt. Mohila College" }, "geometry": { "type": "Point", "coordinates": [ 89.9145027, 24.2535691 ] } },
{ "type": "Feature", "properties": { "osm_id": "2419865108", "code": 2082, "fclass": "school", "name": "সন্তষ জাহ্নবী উচ্চ বিদ্যালয়" }, "geometry": { "type": "Point", "coordinates": [ 89.8945369, 24.2354294 ] } },
{ "type": "Feature", "properties": { "osm_id": "2424145993", "code": 2082, "fclass": "school", "name": "Governemnt Boys School" }, "geometry": { "type": "Point", "coordinates": [ 89.9672359, 22.578446 ] } },
{ "type": "Feature", "properties": { "osm_id": "2425327291", "code": 2082, "fclass": "school", "name": "St. Gregory's High School" }, "geometry": { "type": "Point", "coordinates": [ 90.4141898, 23.7084812 ] } },
{ "type": "Feature", "properties": { "osm_id": "2426548564", "code": 2081, "fclass": "university", "name": "Primary Teacher Training Institute" }, "geometry": { "type": "Point", "coordinates": [ 89.8258062, 23.6001487 ] } },
{ "type": "Feature", "properties": { "osm_id": "2426554019", "code": 2082, "fclass": "school", "name": "Asraful Ulum Madrasa" }, "geometry": { "type": "Point", "coordinates": [ 89.8206544, 23.5975431 ] } },
{ "type": "Feature", "properties": { "osm_id": "2426555109", "code": 2082, "fclass": "school", "name": "Dipshikha School" }, "geometry": { "type": "Point", "coordinates": [ 89.8190822, 23.6001334 ] } },
{ "type": "Feature", "properties": { "osm_id": "2426689887", "code": 2084, "fclass": "college", "name": "Shariatpur Govt. College" }, "geometry": { "type": "Point", "coordinates": [ 90.3372901, 23.2031379 ] } },
{ "type": "Feature", "properties": { "osm_id": "2426690983", "code": 2084, "fclass": "college", "name": "Golam Haider Khan Mohila College" }, "geometry": { "type": "Point", "coordinates": [ 90.3434813, 23.2020571 ] } },
{ "type": "Feature", "properties": { "osm_id": "2428067332", "code": 2082, "fclass": "school", "name": "Kodomtola Primary School" }, "geometry": { "type": "Point", "coordinates": [ 90.6595332, 23.2235025 ] } },
{ "type": "Feature", "properties": { "osm_id": "2428758037", "code": 2084, "fclass": "college", "name": "Debendra College" }, "geometry": { "type": "Point", "coordinates": [ 90.0026241, 23.8627983 ] } },
{ "type": "Feature", "properties": { "osm_id": "2428759410", "code": 2082, "fclass": "school", "name": "88 Number Government Primary School" }, "geometry": { "type": "Point", "coordinates": [ 90.0036249, 23.8601761 ] } },
{ "type": "Feature", "properties": { "osm_id": "2428759680", "code": 2084, "fclass": "college", "name": "Manikgonj Mohila College" }, "geometry": { "type": "Point", "coordinates": [ 90.005975, 23.8616508 ] } },
{ "type": "Feature", "properties": { "osm_id": "2428764824", "code": 2084, "fclass": "college", "name": "Khan Bahadur Awlad Hossain College" }, "geometry": { "type": "Point", "coordinates": [ 90.0122084, 23.8595946 ] } },
{ "type": "Feature", "properties": { "osm_id": "2429202296", "code": 2082, "fclass": "school", "name": "Pangsha George Pilot High School" }, "geometry": { "type": "Point", "coordinates": [ 89.422511, 23.7888015 ] } },
{ "type": "Feature", "properties": { "osm_id": "2429203402", "code": 2084, "fclass": "college", "name": "Pangsha University College" }, "geometry": { "type": "Point", "coordinates": [ 89.421326, 23.7901746 ] } },
{ "type": "Feature", "properties": { "osm_id": "2429203591", "code": 2082, "fclass": "school", "name": "Siddikia Madrasha" }, "geometry": { "type": "Point", "coordinates": [ 89.4215079, 23.787979 ] } },
{ "type": "Feature", "properties": { "osm_id": "2429286464", "code": 2082, "fclass": "school", "name": "Janipur Pilot School" }, "geometry": { "type": "Point", "coordinates": [ 89.2822456, 23.803401 ] } },
{ "type": "Feature", "properties": { "osm_id": "2430784489", "code": 2082, "fclass": "school", "name": "Primary Training Institute (P.T.I) School" }, "geometry": { "type": "Point", "coordinates": [ 91.8268478, 22.332829 ] } },
{ "type": "Feature", "properties": { "osm_id": "2430784490", "code": 2082, "fclass": "school", "name": "City Governments Girls High School" }, "geometry": { "type": "Point", "coordinates": [ 91.8275988, 22.3323427 ] } },
{ "type": "Feature", "properties": { "osm_id": "2431239843", "code": 2082, "fclass": "school", "name": "Bagat Primary and High School" }, "geometry": { "type": "Point", "coordinates": [ 89.5913694, 23.5278545 ] } },
{ "type": "Feature", "properties": { "osm_id": "2432372138", "code": 2082, "fclass": "school", "name": "Varomhigh High School" }, "geometry": { "type": "Point", "coordinates": [ 88.7849666, 25.1345762 ] } },
{ "type": "Feature", "properties": { "osm_id": "2447822367", "code": 2082, "fclass": "school", "name": "Baliakandi High School" }, "geometry": { "type": "Point", "coordinates": [ 89.5470473, 23.6333427 ] } },
{ "type": "Feature", "properties": { "osm_id": "2452924627", "code": 2082, "fclass": "school", "name": "" }, "geometry": { "type": "Point", "coordinates": [ 90.6923006, 24.5712853 ] } },
{ "type": "Feature", "properties": { "osm_id": "2454249973", "code": 2082, "fclass": "school", "name": "Nabab Katra Govt. Primary School" }, "geometry": { "type": "Point", "coordinates": [ 90.4007802, 23.7226416 ] } },
{ "type": "Feature", "properties": { "osm_id": "2456431641", "code": 2084, "fclass": "college", "name": "Government Akbar Ali College" }, "geometry": { "type": "Point", "coordinates": [ 89.5668125, 24.3127364 ] } },
{ "type": "Feature", "properties": { "osm_id": "2456432789", "code": 2082, "fclass": "school", "name": "" }, "geometry": { "type": "Point", "coordinates": [ 89.5688893, 24.2883062 ] } },
{ "type": "Feature", "properties": { "osm_id": "2456439034", "code": 2084, "fclass": "college", "name": "Bangobondhu Woman's College" }, "geometry": { "type": "Point", "coordinates": [ 89.5967475, 24.1714834 ] } },
{ "type": "Feature", "properties": { "osm_id": "2456516040", "code": 2082, "fclass": "school", "name": "Chinakhora High School" }, "geometry": { "type": "Point", "coordinates": [ 89.496046, 23.9610666 ] } },
{ "type": "Feature", "properties": { "osm_id": "2459272290", "code": 2082, "fclass": "school", "name": "Ispahani Public School & College" }, "geometry": { "type": "Point", "coordinates": [ 91.1193187, 23.4767059 ] } },
{ "type": "Feature", "properties": { "osm_id": "2459312454", "code": 2082, "fclass": "school", "name": "Suaganj High School" }, "geometry": { "type": "Point", "coordinates": [ 91.2387556, 23.3765423 ] } },
{ "type": "Feature", "properties": { "osm_id": "2471772650", "code": 2084, "fclass": "college", "name": "Law College" }, "geometry": { "type": "Point", "coordinates": [ 90.4042327, 23.7217494 ] } },
{ "type": "Feature", "properties": { "osm_id": "2471772651", "code": 2084, "fclass": "college", "name": "Law College" }, "geometry": { "type": "Point", "coordinates": [ 90.4041953, 23.7220104 ] } },
{ "type": "Feature", "properties": { "osm_id": "2473541673", "code": 2082, "fclass": "school", "name": "Baliati I.C. High School" }, "geometry": { "type": "Point", "coordinates": [ 90.039956, 23.9925958 ] } },
{ "type": "Feature", "properties": { "osm_id": "2492201727", "code": 2082, "fclass": "school", "name": "Holy Heart International School & College" }, "geometry": { "type": "Point", "coordinates": [ 90.3993094, 23.7166643 ] } },
{ "type": "Feature", "properties": { "osm_id": "2492201729", "code": 2082, "fclass": "school", "name": "Holy Heart International School & College" }, "geometry": { "type": "Point", "coordinates": [ 90.3995032, 23.7166852 ] } },
{ "type": "Feature", "properties": { "osm_id": "2492201731", "code": 2082, "fclass": "school", "name": "Mowlovibazar Govt. Primary School" }, "geometry": { "type": "Point", "coordinates": [ 90.3989699, 23.7167356 ] } },
{ "type": "Feature", "properties": { "osm_id": "2493387879", "code": 2082, "fclass": "school", "name": "Shaheen School" }, "geometry": { "type": "Point", "coordinates": [ 91.1722784, 23.4624768 ] } },
{ "type": "Feature", "properties": { "osm_id": "2501238790", "code": 2082, "fclass": "school", "name": "Sthall Primary School" }, "geometry": { "type": "Point", "coordinates": [ 89.814198, 24.6507616 ] } },
{ "type": "Feature", "properties": { "osm_id": "2501241852", "code": 2082, "fclass": "school", "name": "Pingna High School" }, "geometry": { "type": "Point", "coordinates": [ 89.8097134, 24.6190763 ] } },
{ "type": "Feature", "properties": { "osm_id": "2501242054", "code": 2082, "fclass": "school", "name": "Pingna Girls Hihh School" }, "geometry": { "type": "Point", "coordinates": [ 89.8101211, 24.6172134 ] } },
{ "type": "Feature", "properties": { "osm_id": "2509138296", "code": 2084, "fclass": "college", "name": "Comilla Government Women's College" }, "geometry": { "type": "Point", "coordinates": [ 91.1829261, 23.4562253 ] } },
{ "type": "Feature", "properties": { "osm_id": "2509494231", "code": 2084, "fclass": "college", "name": "Adorsho Degree College" }, "geometry": { "type": "Point", "coordinates": [ 88.6755038, 24.3702279 ] } },
{ "type": "Feature", "properties": { "osm_id": "2509494894", "code": 2082, "fclass": "school", "name": "Katakhali Primary School" }, "geometry": { "type": "Point", "coordinates": [ 88.6744629, 24.3661302 ] } },
{ "type": "Feature", "properties": { "osm_id": "2509563344", "code": 2082, "fclass": "school", "name": "Comilla Iswar Pathsala High School" }, "geometry": { "type": "Point", "coordinates": [ 91.1805915, 23.4571022 ] } },
{ "type": "Feature", "properties": { "osm_id": "2510275321", "code": 2084, "fclass": "college", "name": "SOS Hermann Gmeiner College" }, "geometry": { "type": "Point", "coordinates": [ 89.3562097, 24.8856329 ] } },
{ "type": "Feature", "properties": { "osm_id": "2510686627", "code": 2082, "fclass": "school", "name": "School of Physics & Applied Math" }, "geometry": { "type": "Point", "coordinates": [ 89.3771003, 24.8601341 ] } },
{ "type": "Feature", "properties": { "osm_id": "2510768327", "code": 2082, "fclass": "school", "name": "Bogra Mohila Madrasah" }, "geometry": { "type": "Point", "coordinates": [ 89.3606915, 24.8631795 ] } },
{ "type": "Feature", "properties": { "osm_id": "2510804665", "code": 2082, "fclass": "school", "name": "Sheujgari Primary School" }, "geometry": { "type": "Point", "coordinates": [ 89.3651146, 24.8450789 ] } },
{ "type": "Feature", "properties": { "osm_id": "2513005148", "code": 2082, "fclass": "school", "name": "IET Govt. Primary School" }, "geometry": { "type": "Point", "coordinates": [ 90.4028703, 23.7192289 ] } },
{ "type": "Feature", "properties": { "osm_id": "2514658870", "code": 2082, "fclass": "school", "name": "North Kattali Bishwaspara Government Primary School, Chattogram" }, "geometry": { "type": "Point", "coordinates": [ 91.7695046, 22.3659106 ] } },
{ "type": "Feature", "properties": { "osm_id": "2514659010", "code": 2082, "fclass": "school", "name": "Zaman Anwar Institute" }, "geometry": { "type": "Point", "coordinates": [ 91.7689306, 22.3664953 ] } },
{ "type": "Feature", "properties": { "osm_id": "2514659318", "code": 2084, "fclass": "college", "name": "Kattali Jakerul Ulum Senior Fazil Madrasa" }, "geometry": { "type": "Point", "coordinates": [ 91.7693434, 22.366996 ] } },
{ "type": "Feature", "properties": { "osm_id": "2517048838", "code": 2082, "fclass": "school", "name": "Sher-E-Bangla High School" }, "geometry": { "type": "Point", "coordinates": [ 90.4116551, 23.7568552 ] } },
{ "type": "Feature", "properties": { "osm_id": "2521558612", "code": 2082, "fclass": "school", "name": "Jahangirnagar University School and College" }, "geometry": { "type": "Point", "coordinates": [ 90.2674538, 23.891055 ] } },
{ "type": "Feature", "properties": { "osm_id": "2529402082", "code": 2082, "fclass": "school", "name": "Eden English School" }, "geometry": { "type": "Point", "coordinates": [ 90.4028358, 23.7172041 ] } },
{ "type": "Feature", "properties": { "osm_id": "2529403962", "code": 2082, "fclass": "school", "name": "" }, "geometry": { "type": "Point", "coordinates": [ 90.4025288, 23.7168864 ] } },
{ "type": "Feature", "properties": { "osm_id": "2530818329", "code": 2082, "fclass": "school", "name": "Darut Ta-liz Modrara" }, "geometry": { "type": "Point", "coordinates": [ 90.4055247, 23.7199648 ] } },
{ "type": "Feature", "properties": { "osm_id": "2530818331", "code": 2082, "fclass": "school", "name": "Polash Academy" }, "geometry": { "type": "Point", "coordinates": [ 90.4049567, 23.7199582 ] } },
{ "type": "Feature", "properties": { "osm_id": "2541439566", "code": 2084, "fclass": "college", "name": "Dhaka Commerce College" }, "geometry": { "type": "Point", "coordinates": [ 90.3529347, 23.806746 ] } },
{ "type": "Feature", "properties": { "osm_id": "2569512873", "code": 2084, "fclass": "college", "name": "Readers School and College" }, "geometry": { "type": "Point", "coordinates": [ 91.838017, 22.3618116 ] } },
{ "type": "Feature", "properties": { "osm_id": "2569515159", "code": 2082, "fclass": "school", "name": "Scolars Preparatory School and College" }, "geometry": { "type": "Point", "coordinates": [ 91.8375134, 22.3617771 ] } },
{ "type": "Feature", "properties": { "osm_id": "2569537202", "code": 2082, "fclass": "school", "name": "Little Jewels School" }, "geometry": { "type": "Point", "coordinates": [ 91.8365438, 22.3620496 ] } },
{ "type": "Feature", "properties": { "osm_id": "2569542049", "code": 2082, "fclass": "school", "name": "Independent School" }, "geometry": { "type": "Point", "coordinates": [ 91.8366974, 22.3624624 ] } },
{ "type": "Feature", "properties": { "osm_id": "2569542851", "code": 2082, "fclass": "school", "name": "Brighton English School and College" }, "geometry": { "type": "Point", "coordinates": [ 91.8373274, 22.3622079 ] } },
{ "type": "Feature", "properties": { "osm_id": "2571032965", "code": 2084, "fclass": "college", "name": "karnaphuli public school & college" }, "geometry": { "type": "Point", "coordinates": [ 91.8415277, 22.3574338 ] } },
{ "type": "Feature", "properties": { "osm_id": "2571037290", "code": 2084, "fclass": "college", "name": "Islami Bank Institute of Technology" }, "geometry": { "type": "Point", "coordinates": [ 91.8378443, 22.3574671 ] } },
{ "type": "Feature", "properties": { "osm_id": "2571154127", "code": 2082, "fclass": "school", "name": "Kapash Gola Primary School" }, "geometry": { "type": "Point", "coordinates": [ 91.841504, 22.3600746 ] } },
{ "type": "Feature", "properties": { "osm_id": "2571720472", "code": 2082, "fclass": "school", "name": "Chittagong Government Girls' High School" }, "geometry": { "type": "Point", "coordinates": [ 91.8147951, 22.3646572 ] } },
{ "type": "Feature", "properties": { "osm_id": "2571728366", "code": 2082, "fclass": "school", "name": "Nasirabad Pulic School" }, "geometry": { "type": "Point", "coordinates": [ 91.8171222, 22.3633665 ] } },
{ "type": "Feature", "properties": { "osm_id": "2571782777", "code": 2082, "fclass": "school", "name": "Police Line High School" }, "geometry": { "type": "Point", "coordinates": [ 91.1714588, 23.4670042 ] } },
{ "type": "Feature", "properties": { "osm_id": "2572547953", "code": 2082, "fclass": "school", "name": "New Jhawtala Government Primary School" }, "geometry": { "type": "Point", "coordinates": [ 91.8073481, 22.3616271 ] } },
{ "type": "Feature", "properties": { "osm_id": "2572549010", "code": 2081, "fclass": "university", "name": "Chittagong Veterinary and Animal Sciences University" }, "geometry": { "type": "Point", "coordinates": [ 91.804417, 22.3627837 ] } },
{ "type": "Feature", "properties": { "osm_id": "2572619077", "code": 2082, "fclass": "school", "name": "Ispahani Adarsha High School" }, "geometry": { "type": "Point", "coordinates": [ 91.7776041, 22.3650794 ] } },
{ "type": "Feature", "properties": { "osm_id": "2572729512", "code": 2082, "fclass": "school", "name": "140 No ChowkBazar Govt. Primary School" }, "geometry": { "type": "Point", "coordinates": [ 91.1950837, 23.4634533 ] } },
{ "type": "Feature", "properties": { "osm_id": "2572871474", "code": 2084, "fclass": "college", "name": "Mostafa Hakim Degree College" }, "geometry": { "type": "Point", "coordinates": [ 91.7709111, 22.3733479 ] } },
{ "type": "Feature", "properties": { "osm_id": "2573182763", "code": 2082, "fclass": "school", "name": "Comilla High School" }, "geometry": { "type": "Point", "coordinates": [ 91.1843794, 23.4661337 ] } },
{ "type": "Feature", "properties": { "osm_id": "2577031006", "code": 2082, "fclass": "school", "name": "Don View KG & High School" }, "geometry": { "type": "Point", "coordinates": [ 91.8495616, 22.3589222 ] } },
{ "type": "Feature", "properties": { "osm_id": "2577033754", "code": 2082, "fclass": "school", "name": "City Ideal School and College" }, "geometry": { "type": "Point", "coordinates": [ 91.8501302, 22.3590363 ] } },
{ "type": "Feature", "properties": { "osm_id": "2577038049", "code": 2084, "fclass": "college", "name": "Silver Sky School & College" }, "geometry": { "type": "Point", "coordinates": [ 91.8462893, 22.3584459 ] } },
{ "type": "Feature", "properties": { "osm_id": "2577039011", "code": 2084, "fclass": "college", "name": "New Star School & College" }, "geometry": { "type": "Point", "coordinates": [ 91.8467024, 22.3593389 ] } },
{ "type": "Feature", "properties": { "osm_id": "2577056134", "code": 2084, "fclass": "college", "name": "Chadgao Laboratory School & college" }, "geometry": { "type": "Point", "coordinates": [ 91.8538339, 22.3793736 ] } },
{ "type": "Feature", "properties": { "osm_id": "2580454378", "code": 2084, "fclass": "college", "name": "Hazi Mohammad Mohshin College" }, "geometry": { "type": "Point", "coordinates": [ 91.8357191, 22.3527869 ] } },
{ "type": "Feature", "properties": { "osm_id": "2581026777", "code": 2082, "fclass": "school", "name": "FM International School" }, "geometry": { "type": "Point", "coordinates": [ 91.8127233, 22.3369923 ] } },
{ "type": "Feature", "properties": { "osm_id": "2581039404", "code": 2082, "fclass": "school", "name": "Ananda Multimedia Computer Training Center" }, "geometry": { "type": "Point", "coordinates": [ 91.8123021, 22.3372628 ] } },
{ "type": "Feature", "properties": { "osm_id": "2581078667", "code": 2081, "fclass": "university", "name": "East Delta University (EDU)" }, "geometry": { "type": "Point", "coordinates": [ 91.8113974, 22.3214969 ] } },
{ "type": "Feature", "properties": { "osm_id": "2583439339", "code": 2082, "fclass": "school", "name": "Police Line School" }, "geometry": { "type": "Point", "coordinates": [ 91.8174571, 22.3521542 ] } },
{ "type": "Feature", "properties": { "osm_id": "2586783562", "code": 2082, "fclass": "school", "name": "City Corporation High School" }, "geometry": { "type": "Point", "coordinates": [ 91.8349645, 22.3425635 ] } },
{ "type": "Feature", "properties": { "osm_id": "2588776659", "code": 2084, "fclass": "college", "name": "Chittagong Maa-O-Shishu Hospital Medical College" }, "geometry": { "type": "Point", "coordinates": [ 91.8061102, 22.3231074 ] } },
{ "type": "Feature", "properties": { "osm_id": "2616249197", "code": 2082, "fclass": "school", "name": "Pagla High School" }, "geometry": { "type": "Point", "coordinates": [ 91.4458814, 24.9282145 ] } },
{ "type": "Feature", "properties": { "osm_id": "2638159693", "code": 2082, "fclass": "school", "name": "Bandarban Government Girls' High School" }, "geometry": { "type": "Point", "coordinates": [ 92.220804, 22.1977411 ] } },
{ "type": "Feature", "properties": { "osm_id": "2638160939", "code": 2082, "fclass": "school", "name": "Bandarban Government High School" }, "geometry": { "type": "Point", "coordinates": [ 92.2187298, 22.1972165 ] } },
{ "type": "Feature", "properties": { "osm_id": "2669382753", "code": 2082, "fclass": "school", "name": "Joydebpur Government Girls High School" }, "geometry": { "type": "Point", "coordinates": [ 90.4264286, 24.0002967 ] } },
{ "type": "Feature", "properties": { "osm_id": "2671965232", "code": 2084, "fclass": "college", "name": "Chaperhat Degree College" }, "geometry": { "type": "Point", "coordinates": [ 89.2611958, 26.0001372 ] } },
{ "type": "Feature", "properties": { "osm_id": "2672010241", "code": 2084, "fclass": "college", "name": "Chandrapur College" }, "geometry": { "type": "Point", "coordinates": [ 89.2933777, 26.0305651 ] } },
{ "type": "Feature", "properties": { "osm_id": "2672011549", "code": 2082, "fclass": "school", "name": "Chandrapur High School" }, "geometry": { "type": "Point", "coordinates": [ 89.2937103, 26.0305796 ] } },
{ "type": "Feature", "properties": { "osm_id": "2672064339", "code": 2082, "fclass": "school", "name": "Nawdabas Maddrasa" }, "geometry": { "type": "Point", "coordinates": [ 89.3034901, 26.0275328 ] } },
{ "type": "Feature", "properties": { "osm_id": "2672091900", "code": 2082, "fclass": "school", "name": "" }, "geometry": { "type": "Point", "coordinates": [ 89.2902637, 26.0221621 ] } },
{ "type": "Feature", "properties": { "osm_id": "2672591269", "code": 2082, "fclass": "school", "name": "Botla Primary School" }, "geometry": { "type": "Point", "coordinates": [ 89.2810239, 26.0322222 ] } },
{ "type": "Feature", "properties": { "osm_id": "2672603192", "code": 2082, "fclass": "school", "name": "Chaparhat High School" }, "geometry": { "type": "Point", "coordinates": [ 89.2655201, 26.0020766 ] } },
{ "type": "Feature", "properties": { "osm_id": "2675003552", "code": 2082, "fclass": "school", "name": "Balapara School" }, "geometry": { "type": "Point", "coordinates": [ 89.2891522, 26.0143741 ] } },
{ "type": "Feature", "properties": { "osm_id": "2675005131", "code": 2082, "fclass": "school", "name": "" }, "geometry": { "type": "Point", "coordinates": [ 89.2890678, 26.0154981 ] } },
{ "type": "Feature", "properties": { "osm_id": "2675287082", "code": 2082, "fclass": "school", "name": "Shiwal Khawa School" }, "geometry": { "type": "Point", "coordinates": [ 89.3111049, 25.985166 ] } },
{ "type": "Feature", "properties": { "osm_id": "2681839110", "code": 2082, "fclass": "school", "name": "উদয়ন উচ্চ বিদ্যালয় ও কলেজ" }, "geometry": { "type": "Point", "coordinates": [ 90.3922142, 23.7294455 ] } },
{ "type": "Feature", "properties": { "osm_id": "2684722790", "code": 2082, "fclass": "school", "name": "Shahid Abdul Hamid Kinder Garten" }, "geometry": { "type": "Point", "coordinates": [ 90.7476377, 22.5966572 ] } },
{ "type": "Feature", "properties": { "osm_id": "2712496060", "code": 2082, "fclass": "school", "name": "DPS STS School" }, "geometry": { "type": "Point", "coordinates": [ 90.4022289, 23.8687174 ] } },
{ "type": "Feature", "properties": { "osm_id": "2713479078", "code": 2082, "fclass": "school", "name": "Sultanpur T M High School" }, "geometry": { "type": "Point", "coordinates": [ 90.6717703, 24.0051457 ] } },
{ "type": "Feature", "properties": { "osm_id": "2713479081", "code": 2082, "fclass": "school", "name": "Sultanpur TM Govt. Primary School" }, "geometry": { "type": "Point", "coordinates": [ 90.6711233, 24.0051176 ] } },
{ "type": "Feature", "properties": { "osm_id": "2715213686", "code": 2082, "fclass": "school", "name": "BADC High School" }, "geometry": { "type": "Point", "coordinates": [ 90.3515312, 23.7864729 ] } },
{ "type": "Feature", "properties": { "osm_id": "2739046632", "code": 2081, "fclass": "university", "name": "Govt M. M. College" }, "geometry": { "type": "Point", "coordinates": [ 89.2020144, 23.1604381 ] } },
{ "type": "Feature", "properties": { "osm_id": "2755581751", "code": 2084, "fclass": "college", "name": "Govt. Women's College, Jessore" }, "geometry": { "type": "Point", "coordinates": [ 89.1986251, 23.1666228 ] } },
{ "type": "Feature", "properties": { "osm_id": "2796926517", "code": 2082, "fclass": "school", "name": "South Pahartoli Govt. Primary School" }, "geometry": { "type": "Point", "coordinates": [ 91.8193782, 22.4239039 ] } },
{ "type": "Feature", "properties": { "osm_id": "2797027715", "code": 2084, "fclass": "college", "name": "Dr. Sikandar Ali College" }, "geometry": { "type": "Point", "coordinates": [ 90.0780885, 25.1134996 ] } },
{ "type": "Feature", "properties": { "osm_id": "2797041576", "code": 2082, "fclass": "school", "name": "Taragonj Girls High School" }, "geometry": { "type": "Point", "coordinates": [ 90.193812, 25.0851416 ] } },
{ "type": "Feature", "properties": { "osm_id": "2797068241", "code": 2084, "fclass": "college", "name": "Nazmul Smriti College" }, "geometry": { "type": "Point", "coordinates": [ 90.1838311, 25.0960596 ] } },
{ "type": "Feature", "properties": { "osm_id": "2797084972", "code": 2082, "fclass": "school", "name": "Nonni High School" }, "geometry": { "type": "Point", "coordinates": [ 90.1338424, 25.160807 ] } },
{ "type": "Feature", "properties": { "osm_id": "2797106421", "code": 2084, "fclass": "college", "name": "Hazi Nurul Hoque Maitree College" }, "geometry": { "type": "Point", "coordinates": [ 90.1475354, 25.1731712 ] } },
{ "type": "Feature", "properties": { "osm_id": "2797984056", "code": 2084, "fclass": "college", "name": "Haji Jalmamud College" }, "geometry": { "type": "Point", "coordinates": [ 90.1785973, 24.9646578 ] } },
{ "type": "Feature", "properties": { "osm_id": "2798024867", "code": 2082, "fclass": "school", "name": "Talebiya Govt. Primary School" }, "geometry": { "type": "Point", "coordinates": [ 91.8026286, 22.3282488 ] } },
{ "type": "Feature", "properties": { "osm_id": "2798151804", "code": 2084, "fclass": "college", "name": "Tangail Technical Institute" }, "geometry": { "type": "Point", "coordinates": [ 89.9355386, 24.2457514 ] } },
{ "type": "Feature", "properties": { "osm_id": "2798250881", "code": 2082, "fclass": "school", "name": "Kudalia Govt. Primary School" }, "geometry": { "type": "Point", "coordinates": [ 89.9277898, 24.2671897 ] } },
{ "type": "Feature", "properties": { "osm_id": "2798285032", "code": 2082, "fclass": "school", "name": "Jamalpur Girls High School" }, "geometry": { "type": "Point", "coordinates": [ 89.94362, 24.9314429 ] } },
{ "type": "Feature", "properties": { "osm_id": "2798287626", "code": 2082, "fclass": "school", "name": "Jamalpur Zilla School" }, "geometry": { "type": "Point", "coordinates": [ 89.9429718, 24.9332783 ] } },
{ "type": "Feature", "properties": { "osm_id": "2800686606", "code": 2082, "fclass": "school", "name": "Purbashinda Primary School" }, "geometry": { "type": "Point", "coordinates": [ 90.0508149, 24.4017079 ] } },
{ "type": "Feature", "properties": { "osm_id": "2803872772", "code": 2082, "fclass": "school", "name": "Wazir Ali High School" }, "geometry": { "type": "Point", "coordinates": [ 89.1773916, 23.545291 ] } },
{ "type": "Feature", "properties": { "osm_id": "2803903105", "code": 2084, "fclass": "college", "name": "Jhenaidah Polytechnical Institute" }, "geometry": { "type": "Point", "coordinates": [ 89.1989764, 23.541941 ] } },
{ "type": "Feature", "properties": { "osm_id": "2805657809", "code": 2084, "fclass": "college", "name": "Government Hossain Shaheed Sharwardi College" }, "geometry": { "type": "Point", "coordinates": [ 89.4190109, 23.4891247 ] } },
{ "type": "Feature", "properties": { "osm_id": "2805659180", "code": 2084, "fclass": "college", "name": "Adorsho Degree College" }, "geometry": { "type": "Point", "coordinates": [ 89.4131314, 23.4862682 ] } },
{ "type": "Feature", "properties": { "osm_id": "2805666418", "code": 2082, "fclass": "school", "name": "Magura Government Girls High School" }, "geometry": { "type": "Point", "coordinates": [ 89.4203807, 23.4913258 ] } },
{ "type": "Feature", "properties": { "osm_id": "2809012450", "code": 2082, "fclass": "school", "name": "Maijpara High School" }, "geometry": { "type": "Point", "coordinates": [ 89.4580103, 23.2367322 ] } },
{ "type": "Feature", "properties": { "osm_id": "2809017168", "code": 2082, "fclass": "school", "name": "Garerghat High School" }, "geometry": { "type": "Point", "coordinates": [ 89.4409837, 23.261368 ] } },
{ "type": "Feature", "properties": { "osm_id": "2809024908", "code": 2082, "fclass": "school", "name": "Pulum High School" }, "geometry": { "type": "Point", "coordinates": [ 89.437016, 23.2898654 ] } },
{ "type": "Feature", "properties": { "osm_id": "2809028222", "code": 2082, "fclass": "school", "name": "Naliya Primary School" }, "geometry": { "type": "Point", "coordinates": [ 89.4356849, 23.3145427 ] } },
{ "type": "Feature", "properties": { "osm_id": "2809034237", "code": 2082, "fclass": "school", "name": "Bunagati Primary School" }, "geometry": { "type": "Point", "coordinates": [ 89.4246001, 23.3121881 ] } },
{ "type": "Feature", "properties": { "osm_id": "2809051122", "code": 2084, "fclass": "college", "name": "Bunagati College" }, "geometry": { "type": "Point", "coordinates": [ 89.4223695, 23.3116675 ] } },
{ "type": "Feature", "properties": { "osm_id": "2810294379", "code": 2084, "fclass": "college", "name": "Maijpara College" }, "geometry": { "type": "Point", "coordinates": [ 89.4599989, 23.2349298 ] } },
{ "type": "Feature", "properties": { "osm_id": "2813014689", "code": 2082, "fclass": "school", "name": "Ekhlasur Rahman Government Primary School" }, "geometry": { "type": "Point", "coordinates": [ 91.8435649, 22.367732 ] } },
{ "type": "Feature", "properties": { "osm_id": "2813434228", "code": 2082, "fclass": "school", "name": "Feni Government Alia Madrasha" }, "geometry": { "type": "Point", "coordinates": [ 91.3981088, 23.013654 ] } },
{ "type": "Feature", "properties": { "osm_id": "2813453801", "code": 2084, "fclass": "college", "name": "Feni Government College" }, "geometry": { "type": "Point", "coordinates": [ 91.4020713, 23.012231 ] } },
{ "type": "Feature", "properties": { "osm_id": "2813482930", "code": 2082, "fclass": "school", "name": "প্রাথমিক শিক্ষক প্রশিক্ষণ ইনস্টিটিউ" }, "geometry": { "type": "Point", "coordinates": [ 91.4002452, 23.0099623 ] } },
{ "type": "Feature", "properties": { "osm_id": "2813484143", "code": 2082, "fclass": "school", "name": "Feni Model High School" }, "geometry": { "type": "Point", "coordinates": [ 91.4016225, 23.0074113 ] } },
{ "type": "Feature", "properties": { "osm_id": "2813487838", "code": 2082, "fclass": "school", "name": "Feni Technical School and College" }, "geometry": { "type": "Point", "coordinates": [ 91.380331, 23.0276768 ] } },
{ "type": "Feature", "properties": { "osm_id": "2813695617", "code": 2082, "fclass": "school", "name": "Bagmara High School" }, "geometry": { "type": "Point", "coordinates": [ 91.1460097, 23.3392379 ] } },
{ "type": "Feature", "properties": { "osm_id": "2813700539", "code": 2082, "fclass": "school", "name": "Lalmai High School" }, "geometry": { "type": "Point", "coordinates": [ 91.1465436, 23.3590727 ] } },
{ "type": "Feature", "properties": { "osm_id": "2813709843", "code": 2082, "fclass": "school", "name": "Ratanpur Government Primary School" }, "geometry": { "type": "Point", "coordinates": [ 91.1522306, 23.3699784 ] } },
{ "type": "Feature", "properties": { "osm_id": "2813715605", "code": 2082, "fclass": "school", "name": "Bijoypur Government Primary School" }, "geometry": { "type": "Point", "coordinates": [ 91.1582466, 23.3833475 ] } },
{ "type": "Feature", "properties": { "osm_id": "2813719611", "code": 2082, "fclass": "school", "name": "Chandpur Janata High School" }, "geometry": { "type": "Point", "coordinates": [ 91.1722279, 23.4039582 ] } },
{ "type": "Feature", "properties": { "osm_id": "2813728008", "code": 2082, "fclass": "school", "name": "Hadatali DS Dhakhil Madrasha" }, "geometry": { "type": "Point", "coordinates": [ 91.1534886, 23.4323085 ] } },
{ "type": "Feature", "properties": { "osm_id": "2813742231", "code": 2082, "fclass": "school", "name": "Comilla Public School and College" }, "geometry": { "type": "Point", "coordinates": [ 91.1220718, 23.4780899 ] } },
{ "type": "Feature", "properties": { "osm_id": "2815320001", "code": 2082, "fclass": "school", "name": "Nimsar High School" }, "geometry": { "type": "Point", "coordinates": [ 91.0587227, 23.4818307 ] } },
{ "type": "Feature", "properties": { "osm_id": "2815321312", "code": 2082, "fclass": "school", "name": "Korpai Government Primary School" }, "geometry": { "type": "Point", "coordinates": [ 91.0365217, 23.4804067 ] } },
{ "type": "Feature", "properties": { "osm_id": "2815323922", "code": 2082, "fclass": "school", "name": "Gobindopur High School" }, "geometry": { "type": "Point", "coordinates": [ 91.0248334, 23.4827542 ] } },
{ "type": "Feature", "properties": { "osm_id": "2815348728", "code": 2082, "fclass": "school", "name": "Chandina Model Pilot High School" }, "geometry": { "type": "Point", "coordinates": [ 91.0075992, 23.4866939 ] } },
{ "type": "Feature", "properties": { "osm_id": "2815352102", "code": 2084, "fclass": "college", "name": "Chandina Alamin Islamia Kamil Madrasha" }, "geometry": { "type": "Point", "coordinates": [ 91.0028133, 23.4884625 ] } },
{ "type": "Feature", "properties": { "osm_id": "2815359030", "code": 2082, "fclass": "school", "name": "West Belasor Government Primary School" }, "geometry": { "type": "Point", "coordinates": [ 90.9838909, 23.4943448 ] } },
{ "type": "Feature", "properties": { "osm_id": "2815583322", "code": 2082, "fclass": "school", "name": "Rainadi Madrasha" }, "geometry": { "type": "Point", "coordinates": [ 90.6570008, 23.8580028 ] } },
{ "type": "Feature", "properties": { "osm_id": "2817570554", "code": 2082, "fclass": "school", "name": "Muslim Girls School and College" }, "geometry": { "type": "Point", "coordinates": [ 90.3966779, 24.7622562 ] } },
{ "type": "Feature", "properties": { "osm_id": "2817580772", "code": 2082, "fclass": "school", "name": "Sankipara Primary School" }, "geometry": { "type": "Point", "coordinates": [ 90.3932076, 24.7581175 ] } },
{ "type": "Feature", "properties": { "osm_id": "2817583798", "code": 2082, "fclass": "school", "name": "Nasirabad School" }, "geometry": { "type": "Point", "coordinates": [ 90.3988317, 24.756564 ] } },
{ "type": "Feature", "properties": { "osm_id": "2817586327", "code": 2082, "fclass": "school", "name": "Cantonment Public School and College" }, "geometry": { "type": "Point", "coordinates": [ 90.3872034, 24.7566786 ] } },
{ "type": "Feature", "properties": { "osm_id": "2817589055", "code": 2082, "fclass": "school", "name": "Mymensingh Zila School" }, "geometry": { "type": "Point", "coordinates": [ 90.3992855, 24.759597 ] } },
{ "type": "Feature", "properties": { "osm_id": "2817591958", "code": 2082, "fclass": "school", "name": "Mohila Samity Udoyon School" }, "geometry": { "type": "Point", "coordinates": [ 90.4047264, 24.764633 ] } },
{ "type": "Feature", "properties": { "osm_id": "2817593075", "code": 2082, "fclass": "school", "name": "Mukul Niketon High School" }, "geometry": { "type": "Point", "coordinates": [ 90.4115045, 24.7560582 ] } },
{ "type": "Feature", "properties": { "osm_id": "2817593698", "code": 2082, "fclass": "school", "name": "Holy Family Primary School" }, "geometry": { "type": "Point", "coordinates": [ 90.4145374, 24.7428714 ] } },
{ "type": "Feature", "properties": { "osm_id": "2817604421", "code": 2082, "fclass": "school", "name": "Vidyamoyee Government Girls High School" }, "geometry": { "type": "Point", "coordinates": [ 90.4048442, 24.7575273 ] } },
{ "type": "Feature", "properties": { "osm_id": "2817622693", "code": 2084, "fclass": "college", "name": "Mymensingh Engineering College" }, "geometry": { "type": "Point", "coordinates": [ 90.3445654, 24.7814717 ] } },
{ "type": "Feature", "properties": { "osm_id": "2818507580", "code": 2082, "fclass": "school", "name": "Mymensingh Medical Quarter Primary School" }, "geometry": { "type": "Point", "coordinates": [ 90.40831, 24.730662 ] } },
{ "type": "Feature", "properties": { "osm_id": "2818508248", "code": 2082, "fclass": "school", "name": "Mohakali High School and College" }, "geometry": { "type": "Point", "coordinates": [ 90.4063202, 24.7578153 ] } },
{ "type": "Feature", "properties": { "osm_id": "2818551435", "code": 2084, "fclass": "college", "name": "Alamgir Mansur Memorial Mintu College" }, "geometry": { "type": "Point", "coordinates": [ 90.4053752, 24.7554997 ] } },
{ "type": "Feature", "properties": { "osm_id": "2818561567", "code": 2084, "fclass": "college", "name": "Mymensingh Medical College" }, "geometry": { "type": "Point", "coordinates": [ 90.4092469, 24.7415116 ] } },
{ "type": "Feature", "properties": { "osm_id": "2818588952", "code": 2084, "fclass": "college", "name": "Mymensingh Mohila Degree College" }, "geometry": { "type": "Point", "coordinates": [ 90.4051022, 24.7534836 ] } },
{ "type": "Feature", "properties": { "osm_id": "2818660851", "code": 2084, "fclass": "college", "name": "KB College" }, "geometry": { "type": "Point", "coordinates": [ 90.4301657, 24.7328886 ] } },
{ "type": "Feature", "properties": { "osm_id": "2818661635", "code": 2082, "fclass": "school", "name": "KB High School" }, "geometry": { "type": "Point", "coordinates": [ 90.4315051, 24.7316982 ] } },
{ "type": "Feature", "properties": { "osm_id": "2818664024", "code": 2082, "fclass": "school", "name": "BAU High School" }, "geometry": { "type": "Point", "coordinates": [ 90.4317129, 24.7294501 ] } },
{ "type": "Feature", "properties": { "osm_id": "2820277112", "code": 2081, "fclass": "university", "name": "Faculty of Agri Engineering and Technology" }, "geometry": { "type": "Point", "coordinates": [ 90.435302, 24.7243087 ] } },
{ "type": "Feature", "properties": { "osm_id": "2820279702", "code": 2081, "fclass": "university", "name": "Faculty of Vetenery Science" }, "geometry": { "type": "Point", "coordinates": [ 90.4372575, 24.7245088 ] } },
{ "type": "Feature", "properties": { "osm_id": "2822446388", "code": 2082, "fclass": "school", "name": "Sarishabari Riaz Uddin Talukder High School" }, "geometry": { "type": "Point", "coordinates": [ 89.8317044, 24.7458441 ] } },
{ "type": "Feature", "properties": { "osm_id": "2822446402", "code": 2084, "fclass": "college", "name": "Sarishabari Mahmuda Salam Degree College" }, "geometry": { "type": "Point", "coordinates": [ 89.8299303, 24.7484075 ] } },
{ "type": "Feature", "properties": { "osm_id": "2824261855", "code": 2082, "fclass": "school", "name": "Chanpur Dhakhil Madrasha" }, "geometry": { "type": "Point", "coordinates": [ 89.919663, 24.5947294 ] } },
{ "type": "Feature", "properties": { "osm_id": "2824271541", "code": 2082, "fclass": "school", "name": "Nagda Shimla High School and College" }, "geometry": { "type": "Point", "coordinates": [ 89.9179345, 24.6139926 ] } },
{ "type": "Feature", "properties": { "osm_id": "2824283363", "code": 2082, "fclass": "school", "name": "Dhanbari Collegiate School" }, "geometry": { "type": "Point", "coordinates": [ 89.9499072, 24.6823038 ] } },
{ "type": "Feature", "properties": { "osm_id": "2824779833", "code": 2082, "fclass": "school", "name": "Bogabaid Girls High School" }, "geometry": { "type": "Point", "coordinates": [ 89.9265063, 24.9210881 ] } },
{ "type": "Feature", "properties": { "osm_id": "2824781713", "code": 2082, "fclass": "school", "name": "Bogabaid Government Primary School" }, "geometry": { "type": "Point", "coordinates": [ 89.92188, 24.9217006 ] } },
{ "type": "Feature", "properties": { "osm_id": "2824786273", "code": 2082, "fclass": "school", "name": "Hazrabari Boys Primary School" }, "geometry": { "type": "Point", "coordinates": [ 89.8240011, 24.9249043 ] } },
{ "type": "Feature", "properties": { "osm_id": "2824786690", "code": 2082, "fclass": "school", "name": "Jonail High School" }, "geometry": { "type": "Point", "coordinates": [ 89.7344607, 24.8984948 ] } },
{ "type": "Feature", "properties": { "osm_id": "2824789044", "code": 2082, "fclass": "school", "name": "Bania Bari High School" }, "geometry": { "type": "Point", "coordinates": [ 89.7618963, 24.9998292 ] } },
{ "type": "Feature", "properties": { "osm_id": "2825541065", "code": 2082, "fclass": "school", "name": "Banedwar Government Primary School" }, "geometry": { "type": "Point", "coordinates": [ 88.7553058, 24.3635174 ] } },
{ "type": "Feature", "properties": { "osm_id": "2826633818", "code": 2082, "fclass": "school", "name": "Cantonment Public School and College" }, "geometry": { "type": "Point", "coordinates": [ 91.8149326, 22.3972215 ] } },
{ "type": "Feature", "properties": { "osm_id": "2826636495", "code": 2082, "fclass": "school", "name": "Cantonment English School and College" }, "geometry": { "type": "Point", "coordinates": [ 91.8175275, 22.3968288 ] } },
{ "type": "Feature", "properties": { "osm_id": "2826655688", "code": 2082, "fclass": "school", "name": "BCSIR High School, Chittagong - Rangamati Khagrachhari Rd, Chattogram" }, "geometry": { "type": "Point", "coordinates": [ 91.8188458, 22.4177976 ] } },
{ "type": "Feature", "properties": { "osm_id": "2828247573", "code": 2082, "fclass": "school", "name": "Charia Board School" }, "geometry": { "type": "Point", "coordinates": [ 91.8032473, 22.529402 ] } },
{ "type": "Feature", "properties": { "osm_id": "2828256250", "code": 2082, "fclass": "school", "name": "Katirhat School" }, "geometry": { "type": "Point", "coordinates": [ 91.7947441, 22.6010977 ] } },
{ "type": "Feature", "properties": { "osm_id": "2828256264", "code": 2082, "fclass": "school", "name": "Forhadabad High School" }, "geometry": { "type": "Point", "coordinates": [ 91.7942539, 22.6155861 ] } },
{ "type": "Feature", "properties": { "osm_id": "2828259793", "code": 2084, "fclass": "college", "name": "Nazirhat Degree College" }, "geometry": { "type": "Point", "coordinates": [ 91.7878578, 22.6347748 ] } },
{ "type": "Feature", "properties": { "osm_id": "2828261036", "code": 2082, "fclass": "school", "name": "Babunagar Madrasha" }, "geometry": { "type": "Point", "coordinates": [ 91.8085636, 22.6480328 ] } },
{ "type": "Feature", "properties": { "osm_id": "2828262033", "code": 2082, "fclass": "school", "name": "Fatikchari Coronation High School" }, "geometry": { "type": "Point", "coordinates": [ 91.7945843, 22.6893738 ] } },
{ "type": "Feature", "properties": { "osm_id": "2828262296", "code": 2082, "fclass": "school", "name": "Haidchakia High School" }, "geometry": { "type": "Point", "coordinates": [ 91.7813589, 22.7068266 ] } },
{ "type": "Feature", "properties": { "osm_id": "2828262374", "code": 2084, "fclass": "college", "name": "Fatickchari Degree College" }, "geometry": { "type": "Point", "coordinates": [ 91.7917779, 22.690508 ] } },
{ "type": "Feature", "properties": { "osm_id": "2828278234", "code": 2082, "fclass": "school", "name": "Rani Nahar Debi High School" }, "geometry": { "type": "Point", "coordinates": [ 91.8425949, 22.8500231 ] } },
{ "type": "Feature", "properties": { "osm_id": "2828278235", "code": 2082, "fclass": "school", "name": "Rajbari Model Government Primary School" }, "geometry": { "type": "Point", "coordinates": [ 91.8416696, 22.8489965 ] } },
{ "type": "Feature", "properties": { "osm_id": "2828407395", "code": 2084, "fclass": "college", "name": "Manikchari Girimoytri Degree College" }, "geometry": { "type": "Point", "coordinates": [ 91.8515147, 22.8566531 ] } },
{ "type": "Feature", "properties": { "osm_id": "2828412902", "code": 2082, "fclass": "school", "name": "Natunkuri Cantonment High School" }, "geometry": { "type": "Point", "coordinates": [ 91.9866774, 23.1119031 ] } },
{ "type": "Feature", "properties": { "osm_id": "2828685676", "code": 2084, "fclass": "college", "name": "Khagrachari Government College" }, "geometry": { "type": "Point", "coordinates": [ 91.977109, 23.1134845 ] } },
{ "type": "Feature", "properties": { "osm_id": "2828694060", "code": 2082, "fclass": "school", "name": "Mohalchari Model High School" }, "geometry": { "type": "Point", "coordinates": [ 92.027553, 22.9346458 ] } },
{ "type": "Feature", "properties": { "osm_id": "2828694126", "code": 2082, "fclass": "school", "name": "Mohalchari Government Primary School" }, "geometry": { "type": "Point", "coordinates": [ 92.0276972, 22.9329938 ] } },
{ "type": "Feature", "properties": { "osm_id": "2829188904", "code": 2084, "fclass": "college", "name": "Rangunia College" }, "geometry": { "type": "Point", "coordinates": [ 92.0728534, 22.4616256 ] } },
{ "type": "Feature", "properties": { "osm_id": "2830455773", "code": 2082, "fclass": "school", "name": "Karnaphuli Paper Mills School and College" }, "geometry": { "type": "Point", "coordinates": [ 92.133864, 22.4796389 ] } },
{ "type": "Feature", "properties": { "osm_id": "2830470141", "code": 2082, "fclass": "school", "name": "Al Faruque School" }, "geometry": { "type": "Point", "coordinates": [ 92.2165745, 22.1912079 ] } },
{ "type": "Feature", "properties": { "osm_id": "2830476296", "code": 2082, "fclass": "school", "name": "Collectorate School Bandarba" }, "geometry": { "type": "Point", "coordinates": [ 92.2185408, 22.1937948 ] } },
{ "type": "Feature", "properties": { "osm_id": "2831087228", "code": 2084, "fclass": "college", "name": "Lama Matamuhuri College" }, "geometry": { "type": "Point", "coordinates": [ 92.2082045, 21.7594219 ] } },
{ "type": "Feature", "properties": { "osm_id": "2831092362", "code": 2082, "fclass": "school", "name": "Lama Girls High School" }, "geometry": { "type": "Point", "coordinates": [ 92.1962907, 21.7760145 ] } },
{ "type": "Feature", "properties": { "osm_id": "2831099181", "code": 2082, "fclass": "school", "name": "Lama Government High School" }, "geometry": { "type": "Point", "coordinates": [ 92.1958431, 21.7831876 ] } },
{ "type": "Feature", "properties": { "osm_id": "2831101861", "code": 2082, "fclass": "school", "name": "Malumghat Ideal School" }, "geometry": { "type": "Point", "coordinates": [ 92.0782614, 21.6798393 ] } },
{ "type": "Feature", "properties": { "osm_id": "2856107200", "code": 2084, "fclass": "college", "name": "Mir Ismail Hossain Degree College" }, "geometry": { "type": "Point", "coordinates": [ 89.5436064, 25.7945861 ] } },
{ "type": "Feature", "properties": { "osm_id": "2867575826", "code": 2082, "fclass": "school", "name": "আদর্শ মাধ্যমিক বিদ্যালয়" }, "geometry": { "type": "Point", "coordinates": [ 90.0626205, 22.6290916 ] } },
{ "type": "Feature", "properties": { "osm_id": "2867575828", "code": 2082, "fclass": "school", "name": "কাজী হারুনুর রশিদ রেজিঃ প্রাথমিক বিদ" }, "geometry": { "type": "Point", "coordinates": [ 90.0625282, 22.6288242 ] } },
{ "type": "Feature", "properties": { "osm_id": "2867575829", "code": 2082, "fclass": "school", "name": "মডেল সরকারী প্রাথমিক বিদ্যালয়" }, "geometry": { "type": "Point", "coordinates": [ 90.0605387, 22.6216319 ] } },
{ "type": "Feature", "properties": { "osm_id": "2867740464", "code": 2082, "fclass": "school", "name": "পূর্ব আমরাজুড়ী প্রাথমিক বিদ্যালয়" }, "geometry": { "type": "Point", "coordinates": [ 90.0742296, 22.6404935 ] } },
{ "type": "Feature", "properties": { "osm_id": "2867740465", "code": 2082, "fclass": "school", "name": "পূর্ব আমরাজুড়ী মাধ্যমিক বিদ্যালয়" }, "geometry": { "type": "Point", "coordinates": [ 90.0747296, 22.6403596 ] } },
{ "type": "Feature", "properties": { "osm_id": "2867791004", "code": 2082, "fclass": "school", "name": "মোস্তফা হায়দার একাডেমী" }, "geometry": { "type": "Point", "coordinates": [ 90.0740957, 22.6379692 ] } },
{ "type": "Feature", "properties": { "osm_id": "2867849773", "code": 2082, "fclass": "school", "name": "কেউন্দিয়া মাধ্যমিক বিদ্যালয়" }, "geometry": { "type": "Point", "coordinates": [ 90.0904598, 22.633401 ] } },
{ "type": "Feature", "properties": { "osm_id": "2875626062", "code": 2084, "fclass": "college", "name": "শহীদ রমিজ উদ্দিন ক্যান্টনমেন্ট কলেজ" }, "geometry": { "type": "Point", "coordinates": [ 90.4038133, 23.8161003 ] } },
{ "type": "Feature", "properties": { "osm_id": "2875776862", "code": 2083, "fclass": "kindergarten", "name": "সেন্ট অ্যালবার্ট কিন্ডারগার্টেন" }, "geometry": { "type": "Point", "coordinates": [ 90.0589137, 22.6269433 ] } },
{ "type": "Feature", "properties": { "osm_id": "2876549360", "code": 2082, "fclass": "school", "name": "Bakshigonj Ulfatunnesa Govt Girls High School" }, "geometry": { "type": "Point", "coordinates": [ 89.8698658, 25.1847314 ] } },
{ "type": "Feature", "properties": { "osm_id": "2876549639", "code": 2084, "fclass": "college", "name": "Bakshiganj Govt.kiamat Ullah College" }, "geometry": { "type": "Point", "coordinates": [ 89.8691582, 25.1860336 ] } },
{ "type": "Feature", "properties": { "osm_id": "2876554525", "code": 2082, "fclass": "school", "name": "DA Chilmari Primary School" }, "geometry": { "type": "Point", "coordinates": [ 89.6672401, 25.5584792 ] } },
{ "type": "Feature", "properties": { "osm_id": "2876557034", "code": 2082, "fclass": "school", "name": "Shariferhat High School" }, "geometry": { "type": "Point", "coordinates": [ 89.6591487, 25.5599418 ] } },
{ "type": "Feature", "properties": { "osm_id": "2878364715", "code": 2084, "fclass": "college", "name": "Gaibandha Government Womens College" }, "geometry": { "type": "Point", "coordinates": [ 89.5444704, 25.3295613 ] } },
{ "type": "Feature", "properties": { "osm_id": "2878369447", "code": 2082, "fclass": "school", "name": "Gaibandha Zilla School" }, "geometry": { "type": "Point", "coordinates": [ 89.5445741, 25.328025 ] } },
{ "type": "Feature", "properties": { "osm_id": "2878370307", "code": 2082, "fclass": "school", "name": "Islamia High School" }, "geometry": { "type": "Point", "coordinates": [ 89.5459628, 25.3275144 ] } },
{ "type": "Feature", "properties": { "osm_id": "2878372441", "code": 2084, "fclass": "college", "name": "Gaibandha Adarsha College" }, "geometry": { "type": "Point", "coordinates": [ 89.5438645, 25.3202406 ] } },
{ "type": "Feature", "properties": { "osm_id": "2878373947", "code": 2082, "fclass": "school", "name": "Gaibandha Model School" }, "geometry": { "type": "Point", "coordinates": [ 89.547604, 25.3187218 ] } },
{ "type": "Feature", "properties": { "osm_id": "2879896997", "code": 2082, "fclass": "school", "name": "West Gobindopur Primary School" }, "geometry": { "type": "Point", "coordinates": [ 89.5323864, 25.3202089 ] } },
{ "type": "Feature", "properties": { "osm_id": "2879905143", "code": 2084, "fclass": "college", "name": "Dharmapur Abdul Jalil Degrees College" }, "geometry": { "type": "Point", "coordinates": [ 89.5845129, 25.4609205 ] } },
{ "type": "Feature", "properties": { "osm_id": "2879909236", "code": 2082, "fclass": "school", "name": "Folkhawa Government Primary School" }, "geometry": { "type": "Point", "coordinates": [ 89.5861809, 25.4753534 ] } },
{ "type": "Feature", "properties": { "osm_id": "2879917009", "code": 2082, "fclass": "school", "name": "Jhinia MA High School" }, "geometry": { "type": "Point", "coordinates": [ 89.5442639, 25.5316994 ] } },
{ "type": "Feature", "properties": { "osm_id": "2881474985", "code": 2084, "fclass": "college", "name": "পিরোজপুর মহিলা কলেজ" }, "geometry": { "type": "Point", "coordinates": [ 89.9729842, 22.5789108 ] } },
{ "type": "Feature", "properties": { "osm_id": "2881691029", "code": 2082, "fclass": "school", "name": "Chatila Madrasha" }, "geometry": { "type": "Point", "coordinates": [ 89.9123901, 24.5921206 ] } },
{ "type": "Feature", "properties": { "osm_id": "2887175592", "code": 2082, "fclass": "school", "name": "Ratanpur Abdullah High School" }, "geometry": { "type": "Point", "coordinates": [ 90.9197896, 23.7954382 ] } },
{ "type": "Feature", "properties": { "osm_id": "2887192740", "code": 2082, "fclass": "school", "name": "Uttor Bangora Government Primary School" }, "geometry": { "type": "Point", "coordinates": [ 90.9923717, 23.7956134 ] } },
{ "type": "Feature", "properties": { "osm_id": "2887195573", "code": 2082, "fclass": "school", "name": "Malai Primary School" }, "geometry": { "type": "Point", "coordinates": [ 90.9806592, 23.8001092 ] } },
{ "type": "Feature", "properties": { "osm_id": "2887207231", "code": 2082, "fclass": "school", "name": "Choinpur Primary School" }, "geometry": { "type": "Point", "coordinates": [ 90.9506418, 23.6810876 ] } },
{ "type": "Feature", "properties": { "osm_id": "2887214910", "code": 2084, "fclass": "college", "name": "Shreekail College" }, "geometry": { "type": "Point", "coordinates": [ 90.9548471, 23.7673578 ] } },
{ "type": "Feature", "properties": { "osm_id": "2895200401", "code": 2082, "fclass": "school", "name": "Kamarpara School and College" }, "geometry": { "type": "Point", "coordinates": [ 90.384905, 23.8913904 ] } },
{ "type": "Feature", "properties": { "osm_id": "2895382632", "code": 2084, "fclass": "college", "name": "Muktijoddha Degree College" }, "geometry": { "type": "Point", "coordinates": [ 90.4171531, 24.1443012 ] } },
{ "type": "Feature", "properties": { "osm_id": "2897134522", "code": 2082, "fclass": "school", "name": "Tangail Cotton Mills High School" }, "geometry": { "type": "Point", "coordinates": [ 90.1591797, 24.0995587 ] } },
{ "type": "Feature", "properties": { "osm_id": "2943561418", "code": 2084, "fclass": "college", "name": "Forest Academy" }, "geometry": { "type": "Point", "coordinates": [ 91.818962, 22.3741469 ] } },
{ "type": "Feature", "properties": { "osm_id": "2994120341", "code": 2082, "fclass": "school", "name": "Japanese School" }, "geometry": { "type": "Point", "coordinates": [ 90.4245503, 23.7949193 ] } },
{ "type": "Feature", "properties": { "osm_id": "3012490885", "code": 2082, "fclass": "school", "name": "Advance School for Special Children" }, "geometry": { "type": "Point", "coordinates": [ 90.366497, 23.7719127 ] } },
{ "type": "Feature", "properties": { "osm_id": "3015096600", "code": 2081, "fclass": "university", "name": "বায়োমেডিক্যাল ফিজিক্স অ্যান্ড টেকন" }, "geometry": { "type": "Point", "coordinates": [ 90.4020227, 23.7273622 ] } },
{ "type": "Feature", "properties": { "osm_id": "3015107931", "code": 2081, "fclass": "university", "name": "জেনেটিক ইঞ্জিনিয়ারিং ও জৈবপ্রযুক্তি " }, "geometry": { "type": "Point", "coordinates": [ 90.4017403, 23.7268194 ] } },
{ "type": "Feature", "properties": { "osm_id": "3015667737", "code": 2081, "fclass": "university", "name": "European University of Bangladesh" }, "geometry": { "type": "Point", "coordinates": [ 90.3664103, 23.7737802 ] } },
{ "type": "Feature", "properties": { "osm_id": "3016703129", "code": 2081, "fclass": "university", "name": "সাইক ইনস্টিটিউট অব ম্যানেজমেন্ট অ্যা" }, "geometry": { "type": "Point", "coordinates": [ 90.3625974, 23.8090576 ] } },
{ "type": "Feature", "properties": { "osm_id": "3016715576", "code": 2084, "fclass": "college", "name": "Dhaka Commerce College, Sceince Building" }, "geometry": { "type": "Point", "coordinates": [ 90.3522275, 23.8064718 ] } },
{ "type": "Feature", "properties": { "osm_id": "3037417014", "code": 2084, "fclass": "college", "name": "Parbatipur Degree College" }, "geometry": { "type": "Point", "coordinates": [ 88.9086179, 25.6555934 ] } },
{ "type": "Feature", "properties": { "osm_id": "3037417015", "code": 2084, "fclass": "college", "name": "Parbatipur Adarsha College" }, "geometry": { "type": "Point", "coordinates": [ 88.9205256, 25.6461753 ] } },
{ "type": "Feature", "properties": { "osm_id": "3048269856", "code": 2082, "fclass": "school", "name": "UCEP-Bangladesh-Chittagong-Ambagam Center" }, "geometry": { "type": "Point", "coordinates": [ 91.8074214, 22.3521795 ] } },
{ "type": "Feature", "properties": { "osm_id": "3052357268", "code": 2082, "fclass": "school", "name": "Govt Girls School, Rangpur" }, "geometry": { "type": "Point", "coordinates": [ 89.248117, 25.7536994 ] } },
{ "type": "Feature", "properties": { "osm_id": "3057053859", "code": 2084, "fclass": "college", "name": "শহীদ সোহরাওয়ার্দী সরকারী কলেজ" }, "geometry": { "type": "Point", "coordinates": [ 89.967204, 22.5833633 ] } },
{ "type": "Feature", "properties": { "osm_id": "3059004688", "code": 2082, "fclass": "school", "name": "" }, "geometry": { "type": "Point", "coordinates": [ 90.0587421, 22.6295092 ] } },
{ "type": "Feature", "properties": { "osm_id": "3064088919", "code": 2082, "fclass": "school", "name": "কুমিয়ান সরকারী প্রাথমিক বিদ্যালয়" }, "geometry": { "type": "Point", "coordinates": [ 90.0638011, 22.6339501 ] } },
{ "type": "Feature", "properties": { "osm_id": "3064187629", "code": 2082, "fclass": "school", "name": "" }, "geometry": { "type": "Point", "coordinates": [ 90.0678439, 22.6174208 ] } },
{ "type": "Feature", "properties": { "osm_id": "3070477433", "code": 2082, "fclass": "school", "name": "Inara International School" }, "geometry": { "type": "Point", "coordinates": [ 90.3574963, 23.7568479 ] } },
{ "type": "Feature", "properties": { "osm_id": "3075674765", "code": 2082, "fclass": "school", "name": "" }, "geometry": { "type": "Point", "coordinates": [ 90.0569291, 22.626086 ] } },
{ "type": "Feature", "properties": { "osm_id": "3075674766", "code": 2083, "fclass": "kindergarten", "name": "বর্ণমালা কিন্ডারগার্টেন" }, "geometry": { "type": "Point", "coordinates": [ 90.0617578, 22.6275334 ] } },
{ "type": "Feature", "properties": { "osm_id": "3077577406", "code": 2082, "fclass": "school", "name": "" }, "geometry": { "type": "Point", "coordinates": [ 90.0592538, 22.6089453 ] } },
{ "type": "Feature", "properties": { "osm_id": "3083976452", "code": 2082, "fclass": "school", "name": "কেউন্দিয়া শহীদ স্মৃতি বালিকা উচ্চ ব" }, "geometry": { "type": "Point", "coordinates": [ 90.0913679, 22.6327422 ] } },
{ "type": "Feature", "properties": { "osm_id": "3084100544", "code": 2082, "fclass": "school", "name": "" }, "geometry": { "type": "Point", "coordinates": [ 90.0584969, 22.6203106 ] } },
{ "type": "Feature", "properties": { "osm_id": "3096830441", "code": 2082, "fclass": "school", "name": "" }, "geometry": { "type": "Point", "coordinates": [ 89.3051726, 26.0250638 ] } },
{ "type": "Feature", "properties": { "osm_id": "3096831736", "code": 2082, "fclass": "school", "name": "" }, "geometry": { "type": "Point", "coordinates": [ 89.313324, 26.0222792 ] } },
{ "type": "Feature", "properties": { "osm_id": "3096839295", "code": 2082, "fclass": "school", "name": "" }, "geometry": { "type": "Point", "coordinates": [ 89.2889449, 26.0140914 ] } },
{ "type": "Feature", "properties": { "osm_id": "3096844044", "code": 2082, "fclass": "school", "name": "" }, "geometry": { "type": "Point", "coordinates": [ 89.2911282, 26.0030917 ] } },
{ "type": "Feature", "properties": { "osm_id": "3096849991", "code": 2082, "fclass": "school", "name": "" }, "geometry": { "type": "Point", "coordinates": [ 89.2686505, 26.0044327 ] } },
{ "type": "Feature", "properties": { "osm_id": "3096852947", "code": 2084, "fclass": "college", "name": "" }, "geometry": { "type": "Point", "coordinates": [ 89.2605353, 26.0027822 ] } },
{ "type": "Feature", "properties": { "osm_id": "3181206622", "code": 2082, "fclass": "school", "name": "" }, "geometry": { "type": "Point", "coordinates": [ 90.4139597, 22.1697478 ] } },
{ "type": "Feature", "properties": { "osm_id": "3228476192", "code": 2082, "fclass": "school", "name": "Khawja Ajmeri Kindergarten And High School, Commerce Collage Road, Chattogram" }, "geometry": { "type": "Point", "coordinates": [ 91.8160176, 22.3287297 ] } },
{ "type": "Feature", "properties": { "osm_id": "3245474067", "code": 2084, "fclass": "college", "name": "অমৃতলাল দে কলেজ" }, "geometry": { "type": "Point", "coordinates": [ 90.3656644, 22.7106169 ] } },
{ "type": "Feature", "properties": { "osm_id": "3265725461", "code": 2084, "fclass": "college", "name": "শহীদ স্মৃতি ডিগ্রী কলেজ" }, "geometry": { "type": "Point", "coordinates": [ 90.102397, 22.742354 ] } },
{ "type": "Feature", "properties": { "osm_id": "3294713754", "code": 2081, "fclass": "university", "name": "Eastern University" }, "geometry": { "type": "Point", "coordinates": [ 90.3805747, 23.7424942 ] } },
{ "type": "Feature", "properties": { "osm_id": "3294899861", "code": 2082, "fclass": "school", "name": "BM Laboratory School" }, "geometry": { "type": "Point", "coordinates": [ 90.3734295, 23.7386807 ] } },
{ "type": "Feature", "properties": { "osm_id": "3296810606", "code": 2082, "fclass": "school", "name": "B.M Laboratory School" }, "geometry": { "type": "Point", "coordinates": [ 90.3695731, 23.7378337 ] } },
{ "type": "Feature", "properties": { "osm_id": "3296810609", "code": 2082, "fclass": "school", "name": "Ciam School" }, "geometry": { "type": "Point", "coordinates": [ 90.3682239, 23.7376263 ] } },
{ "type": "Feature", "properties": { "osm_id": "3296810611", "code": 2082, "fclass": "school", "name": "Europa International School" }, "geometry": { "type": "Point", "coordinates": [ 90.3693263, 23.7379292 ] } },
{ "type": "Feature", "properties": { "osm_id": "3296854036", "code": 2082, "fclass": "school", "name": "Ayesha Academy School" }, "geometry": { "type": "Point", "coordinates": [ 90.3703387, 23.7378071 ] } },
{ "type": "Feature", "properties": { "osm_id": "3296902382", "code": 2084, "fclass": "college", "name": "Holy Flower Model College" }, "geometry": { "type": "Point", "coordinates": [ 90.3707062, 23.7402926 ] } },
{ "type": "Feature", "properties": { "osm_id": "3296902383", "code": 2082, "fclass": "school", "name": "Mollick preparatory school / Singing Academy" }, "geometry": { "type": "Point", "coordinates": [ 90.3708049, 23.7401361 ] } },
{ "type": "Feature", "properties": { "osm_id": "3300750673", "code": 2081, "fclass": "university", "name": "Notre Dame University Bangladesh" }, "geometry": { "type": "Point", "coordinates": [ 90.4208152, 23.72936 ] } },
{ "type": "Feature", "properties": { "osm_id": "3301866763", "code": 2084, "fclass": "college", "name": "Chalna MM College" }, "geometry": { "type": "Point", "coordinates": [ 89.5147706, 22.5975965 ] } },
{ "type": "Feature", "properties": { "osm_id": "3302056985", "code": 2082, "fclass": "school", "name": "Moneshwar Government Primary School" }, "geometry": { "type": "Point", "coordinates": [ 90.368012, 23.7390731 ] } },
{ "type": "Feature", "properties": { "osm_id": "3302082052", "code": 2082, "fclass": "school", "name": "Jabal-E-Noor Accademy" }, "geometry": { "type": "Point", "coordinates": [ 90.3574716, 23.733533 ] } },
{ "type": "Feature", "properties": { "osm_id": "3302107665", "code": 2082, "fclass": "school", "name": "Hazi Awal Ideal High School" }, "geometry": { "type": "Point", "coordinates": [ 90.3591953, 23.7312409 ] } },
{ "type": "Feature", "properties": { "osm_id": "3302111684", "code": 2082, "fclass": "school", "name": "Sufia Zinan International School" }, "geometry": { "type": "Point", "coordinates": [ 90.3667561, 23.740808 ] } },
{ "type": "Feature", "properties": { "osm_id": "3302129821", "code": 2082, "fclass": "school", "name": "Bangladesh Pre-Cadet and High School" }, "geometry": { "type": "Point", "coordinates": [ 90.3585609, 23.7319124 ] } },
{ "type": "Feature", "properties": { "osm_id": "3302140599", "code": 2083, "fclass": "kindergarten", "name": "Sobuz Shakha Kindergarten" }, "geometry": { "type": "Point", "coordinates": [ 90.3667689, 23.7403182 ] } },
{ "type": "Feature", "properties": { "osm_id": "3302157638", "code": 2082, "fclass": "school", "name": "Future Mind Model High School" }, "geometry": { "type": "Point", "coordinates": [ 90.3598089, 23.7316356 ] } },
{ "type": "Feature", "properties": { "osm_id": "3302169361", "code": 2084, "fclass": "college", "name": "Rayerbazar Shahid Buddhijibi College" }, "geometry": { "type": "Point", "coordinates": [ 90.3609697, 23.744846 ] } },
{ "type": "Feature", "properties": { "osm_id": "3302211058", "code": 2082, "fclass": "school", "name": "Luminus Kindergarten" }, "geometry": { "type": "Point", "coordinates": [ 90.3636208, 23.7410372 ] } },
{ "type": "Feature", "properties": { "osm_id": "3302211059", "code": 2082, "fclass": "school", "name": "Mevin International School" }, "geometry": { "type": "Point", "coordinates": [ 90.3637164, 23.7414091 ] } },
{ "type": "Feature", "properties": { "osm_id": "3310170450", "code": 2082, "fclass": "school", "name": "" }, "geometry": { "type": "Point", "coordinates": [ 89.5621159, 22.8038109 ] } },
{ "type": "Feature", "properties": { "osm_id": "3312519878", "code": 2083, "fclass": "kindergarten", "name": "British BD. Internationl School" }, "geometry": { "type": "Point", "coordinates": [ 90.3510216, 23.7193653 ] } },
{ "type": "Feature", "properties": { "osm_id": "3312648462", "code": 2081, "fclass": "university", "name": "Gurudayal Govt. College" }, "geometry": { "type": "Point", "coordinates": [ 90.7740964, 24.4411404 ] } },
{ "type": "Feature", "properties": { "osm_id": "3313524399", "code": 2082, "fclass": "school", "name": "Batbunia Primary School" }, "geometry": { "type": "Point", "coordinates": [ 89.4640269, 22.5706568 ] } },
{ "type": "Feature", "properties": { "osm_id": "3313524400", "code": 2082, "fclass": "school", "name": "Batbunia Secondary School" }, "geometry": { "type": "Point", "coordinates": [ 89.4632066, 22.5706462 ] } },
{ "type": "Feature", "properties": { "osm_id": "3313853334", "code": 2082, "fclass": "school", "name": "Amin Academy" }, "geometry": { "type": "Point", "coordinates": [ 90.3660837, 23.7236515 ] } },
{ "type": "Feature", "properties": { "osm_id": "3314001916", "code": 2082, "fclass": "school", "name": "Baytul Ulum Madrasa" }, "geometry": { "type": "Point", "coordinates": [ 90.3650172, 23.7107159 ] } },
{ "type": "Feature", "properties": { "osm_id": "3314038152", "code": 2082, "fclass": "school", "name": "Modinatol Alime Madrasha" }, "geometry": { "type": "Point", "coordinates": [ 90.3751764, 23.7108839 ] } },
{ "type": "Feature", "properties": { "osm_id": "3314056180", "code": 2082, "fclass": "school", "name": "All-Islam Pre-Cadet High School" }, "geometry": { "type": "Point", "coordinates": [ 90.3769492, 23.7113387 ] } },
{ "type": "Feature", "properties": { "osm_id": "3314061863", "code": 2082, "fclass": "school", "name": "বুড়িগঙ্গা মডেল স্কুল" }, "geometry": { "type": "Point", "coordinates": [ 90.3659945, 23.709879 ] } },
{ "type": "Feature", "properties": { "osm_id": "3314061865", "code": 2082, "fclass": "school", "name": "Reyazul Ulum Madrasa" }, "geometry": { "type": "Point", "coordinates": [ 90.3656792, 23.7106015 ] } },
{ "type": "Feature", "properties": { "osm_id": "3314096734", "code": 2082, "fclass": "school", "name": "Shamsul Ulum Madrasa" }, "geometry": { "type": "Point", "coordinates": [ 90.3669075, 23.7206205 ] } },
{ "type": "Feature", "properties": { "osm_id": "3314119693", "code": 2082, "fclass": "school", "name": "Sunshine Kindergarten And High School" }, "geometry": { "type": "Point", "coordinates": [ 90.3690252, 23.7207448 ] } },
{ "type": "Feature", "properties": { "osm_id": "3314120580", "code": 2082, "fclass": "school", "name": "Iqaamatul Quran Model Madrasah" }, "geometry": { "type": "Point", "coordinates": [ 90.3686966, 23.7203639 ] } },
{ "type": "Feature", "properties": { "osm_id": "3314138324", "code": 2082, "fclass": "school", "name": "Madrasah Mohammadia Qurania" }, "geometry": { "type": "Point", "coordinates": [ 90.3618222, 23.722822 ] } },
{ "type": "Feature", "properties": { "osm_id": "3314138325", "code": 2082, "fclass": "school", "name": "Munshi Bari Madrasah" },