{
"type": "FeatureCollection",
"name": "churches",
"crs": { "type": "name", "properties": { "name": "urn:ogc:def:crs:OGC::CRS84" } },
"features": [
{ "type": "Feature", "properties": { "osm_id": "2574002384", "code": 3100, "fclass": "christian", "name": "" }, "geometry": { "type": "Point", "coordinates": [ 90.4018072, 23.7124545 ] } },
{ "type": "Feature", "properties": { "osm_id": "2574002385", "code": 3100, "fclass": "christian", "name": "" }, "geometry": { "type": "Point", "coordinates": [ 90.4021517, 23.7124621 ] } },
{ "type": "Feature", "properties": { "osm_id": "3030299891", "code": 3100, "fclass": "christian", "name": "Saint Paul's Mission School" }, "geometry": { "type": "Point", "coordinates": [ 90.3716351, 23.7598149 ] } },
{ "type": "Feature", "properties": { "osm_id": "3104950593", "code": 3100, "fclass": "christian", "name": "Love Bangladesh Mission" }, "geometry": { "type": "Point", "coordinates": [ 90.406924, 23.8833915 ] } },
{ "type": "Feature", "properties": { "osm_id": "3357665040", "code": 3100, "fclass": "christian", "name": "" }, "geometry": { "type": "Point", "coordinates": [ 90.2848795, 23.8450798 ] } },
{ "type": "Feature", "properties": { "osm_id": "3416921780", "code": 3100, "fclass": "christian", "name": "Fellowship Church" }, "geometry": { "type": "Point", "coordinates": [ 89.5683906, 22.8025906 ] } },
{ "type": "Feature", "properties": { "osm_id": "3701853197", "code": 3100, "fclass": "christian", "name": "" }, "geometry": { "type": "Point", "coordinates": [ 90.672171, 25.1107397 ] } },
{ "type": "Feature", "properties": { "osm_id": "4668098173", "code": 3100, "fclass": "christian", "name": "St Thomas Church" }, "geometry": { "type": "Point", "coordinates": [ 90.4122369, 23.7101868 ] } },
{ "type": "Feature", "properties": { "osm_id": "4715484671", "code": 3100, "fclass": "christian", "name": "Armenian Church" }, "geometry": { "type": "Point", "coordinates": [ 90.4020955, 23.712478 ] } },
{ "type": "Feature", "properties": { "osm_id": "4747259881", "code": 3100, "fclass": "christian", "name": "Bhoberpara Church" }, "geometry": { "type": "Point", "coordinates": [ 88.5895748, 23.6527657 ] } },
{ "type": "Feature", "properties": { "osm_id": "5125770665", "code": 3100, "fclass": "christian", "name": "Gournadi Catholic Church" }, "geometry": { "type": "Point", "coordinates": [ 90.2230326, 22.9716257 ] } },
{ "type": "Feature", "properties": { "osm_id": "5149439906", "code": 3100, "fclass": "christian", "name": "Ataikula Church of Fallowship" }, "geometry": { "type": "Point", "coordinates": [ 89.4117472, 24.0317953 ] } },
{ "type": "Feature", "properties": { "osm_id": "5263024735", "code": 3100, "fclass": "christian", "name": "Savar Baptist Church" }, "geometry": { "type": "Point", "coordinates": [ 90.2591583, 23.8537729 ] } },
{ "type": "Feature", "properties": { "osm_id": "5285175222", "code": 3100, "fclass": "christian", "name": "" }, "geometry": { "type": "Point", "coordinates": [ 90.3879363, 23.757373 ] } },
{ "type": "Feature", "properties": { "osm_id": "5614924155", "code": 3100, "fclass": "christian", "name": "Faith Tower, Faith Bible Church" }, "geometry": { "type": "Point", "coordinates": [ 90.3101666, 23.8666394 ] } },
{ "type": "Feature", "properties": { "osm_id": "5622154495", "code": 3100, "fclass": "christian", "name": "Bangladesh Amen Mission Church" }, "geometry": { "type": "Point", "coordinates": [ 90.4117757, 23.782375 ] } },
{ "type": "Feature", "properties": { "osm_id": "5942579630", "code": 3100, "fclass": "christian", "name": "Seventh Advantist Church" }, "geometry": { "type": "Point", "coordinates": [ 89.6272936, 22.4680006 ] } },
{ "type": "Feature", "properties": { "osm_id": "5942853787", "code": 3100, "fclass": "christian", "name": "Baptis Church" }, "geometry": { "type": "Point", "coordinates": [ 89.6208993, 22.4729453 ] } },
{ "type": "Feature", "properties": { "osm_id": "5948309459", "code": 3100, "fclass": "christian", "name": "Brammon Mathh Church of The Nejarin" }, "geometry": { "type": "Point", "coordinates": [ 89.6423049, 22.4738146 ] } },
{ "type": "Feature", "properties": { "osm_id": "6088345672", "code": 3100, "fclass": "christian", "name": "Church of criast" }, "geometry": { "type": "Point", "coordinates": [ 89.5668742, 22.4939498 ] } },
{ "type": "Feature", "properties": { "osm_id": "6088345673", "code": 3100, "fclass": "christian", "name": "Friendship Church" }, "geometry": { "type": "Point", "coordinates": [ 89.5763277, 22.4961281 ] } },
{ "type": "Feature", "properties": { "osm_id": "6112757235", "code": 3100, "fclass": "christian", "name": "Shatalian Fccb Mondoli Church" }, "geometry": { "type": "Point", "coordinates": [ 89.3405172, 22.4339954 ] } },
{ "type": "Feature", "properties": { "osm_id": "6146716928", "code": 3100, "fclass": "christian", "name": "Koylaghat Bapist Church" }, "geometry": { "type": "Point", "coordinates": [ 89.5772312, 22.8054825 ] } },
{ "type": "Feature", "properties": { "osm_id": "6182169613", "code": 3100, "fclass": "christian", "name": "Nirmola Mariar Church" }, "geometry": { "type": "Point", "coordinates": [ 90.4512802, 23.9038691 ] } },
{ "type": "Feature", "properties": { "osm_id": "6418617873", "code": 3100, "fclass": "christian", "name": "De Mazenod Church" }, "geometry": { "type": "Point", "coordinates": [ 90.4227585, 23.8029632 ] } },
{ "type": "Feature", "properties": { "osm_id": "6801264814", "code": 3100, "fclass": "christian", "name": "Catholic Church" }, "geometry": { "type": "Point", "coordinates": [ 88.5714291, 24.3798608 ] } },
{ "type": "Feature", "properties": { "osm_id": "10591337371", "code": 3100, "fclass": "christian", "name": "Court Mission House" }, "geometry": { "type": "Point", "coordinates": [ 88.5650319, 24.3733604 ] } },
{ "type": "Feature", "properties": { "osm_id": "10688108264", "code": 3100, "fclass": "christian", "name": "খঞ্জনপুর ক্যাথলিক চার্চ" }, "geometry": { "type": "Point", "coordinates": [ 89.0048982, 25.1058475 ] } },
{ "type": "Feature", "properties": { "osm_id": "10729673895", "code": 3100, "fclass": "christian", "name": "মিশন" }, "geometry": { "type": "Point", "coordinates": [ 88.7445306, 24.9623496 ] } },
{ "type": "Feature", "properties": { "osm_id": "10736372585", "code": 3100, "fclass": "christian", "name": "Sworosotipur Bangladesh Lutharen Church" }, "geometry": { "type": "Point", "coordinates": [ 88.8314813, 24.8688035 ] } },
{ "type": "Feature", "properties": { "osm_id": "11247490282", "code": 3100, "fclass": "christian", "name": "Sagorika Baptist Church" }, "geometry": { "type": "Point", "coordinates": [ 91.7798963, 22.3559759 ] } },
{ "type": "Feature", "properties": { "osm_id": "11520766407", "code": 3100, "fclass": "christian", "name": "aa" }, "geometry": { "type": "Point", "coordinates": [ 88.3680756, 26.0505135 ] } },
{ "type": "Feature", "properties": { "osm_id": "11586134081", "code": 3100, "fclass": "christian", "name": "Mallikbari Baptist Church K.G. School" }, "geometry": { "type": "Point", "coordinates": [ 90.3285954, 24.3810423 ] } },
{ "type": "Feature", "properties": { "osm_id": "11637176595", "code": 3100, "fclass": "christian", "name": "Solepur St. Joseph Church, Shekharnagar - Nimtola Rd, Shekharnagar" }, "geometry": { "type": "Point", "coordinates": [ 90.3199308, 23.6118501 ] } },
{ "type": "Feature", "properties": { "osm_id": "11757078652", "code": 3100, "fclass": "christian", "name": "Firingi Bazar Baptist Church, Kazi Nazrul Islam Road, Kotowali, Chattogram" }, "geometry": { "type": "Point", "coordinates": [ 91.8369766, 22.3316355 ] } },
{ "type": "Feature", "properties": { "osm_id": "11760046539", "code": 3100, "fclass": "christian", "name": "Christ Church, Nur Ahmed Rd, Chattogram" }, "geometry": { "type": "Point", "coordinates": [ 91.8261897, 22.3419028 ] } },
{ "type": "Feature", "properties": { "osm_id": "11777818983", "code": 3100, "fclass": "christian", "name": "Catholic Church" }, "geometry": { "type": "Point", "coordinates": [ 89.0741373, 22.6985433 ] } },
{ "type": "Feature", "properties": { "osm_id": "11966263759", "code": 3100, "fclass": "christian", "name": "The New Covenant Church" }, "geometry": { "type": "Point", "coordinates": [ 88.6175721, 25.8995415 ] } },
{ "type": "Feature", "properties": { "osm_id": "11975237190", "code": 3100, "fclass": "christian", "name": "Shuihari Catholic Church, Catholic church" }, "geometry": { "type": "Point", "coordinates": [ 88.6460018, 25.654351 ] } },
{ "type": "Feature", "properties": { "osm_id": "11975254279", "code": 3100, "fclass": "christian", "name": "Catholic Church, Church" }, "geometry": { "type": "Point", "coordinates": [ 88.6567725, 25.6891345 ] } },
{ "type": "Feature", "properties": { "osm_id": "12087850293", "code": 3100, "fclass": "christian", "name": "Church Rajbari" }, "geometry": { "type": "Point", "coordinates": [ 89.6415209, 23.7643111 ] } },
{ "type": "Feature", "properties": { "osm_id": "12430527343", "code": 3100, "fclass": "christian", "name": "Jalchatro Mission compound, Mission" }, "geometry": { "type": "Point", "coordinates": [ 90.076728, 24.6448193 ] } },
{ "type": "Feature", "properties": { "osm_id": "12506831052", "code": 3100, "fclass": "christian", "name": "" }, "geometry": { "type": "Point", "coordinates": [ 91.8745072, 24.8986046 ] } },
{ "type": "Feature", "properties": { "osm_id": "12762125644", "code": 3100, "fclass": "christian", "name": "Pagolpara Baptist Church, Baptist church" }, "geometry": { "type": "Point", "coordinates": [ 90.3349861, 25.122333 ] } },
{ "type": "Feature", "properties": { "osm_id": "12794537251", "code": 3100, "fclass": "christian", "name": "Katabari Adventist Church" }, "geometry": { "type": "Point", "coordinates": [ 90.209665, 25.1935063 ] } },
{ "type": "Feature", "properties": { "osm_id": "12809377915", "code": 3100, "fclass": "christian", "name": "Baromari Mission, Church" }, "geometry": { "type": "Point", "coordinates": [ 90.1861665, 25.2014109 ] } },
{ "type": "Feature", "properties": { "osm_id": "12811570931", "code": 3100, "fclass": "christian", "name": "Sadhu Andiyar Mission, Shanti Dham, Church" }, "geometry": { "type": "Point", "coordinates": [ 90.2571096, 25.1907599 ] } },
{ "type": "Feature", "properties": { "osm_id": "12814104987", "code": 3100, "fclass": "christian", "name": "Kalakuma Baptist Church" }, "geometry": { "type": "Point", "coordinates": [ 90.2225425, 25.1880843 ] } },
{ "type": "Feature", "properties": { "osm_id": "13314382951", "code": 3100, "fclass": "christian", "name": "বাংলাদেশ ইভানজজেলিক্যআল রিভাইভাল চা" }, "geometry": { "type": "Point", "coordinates": [ 90.3675331, 23.8043515 ] } },
{ "type": "Feature", "properties": { "osm_id": "13360696010", "code": 3100, "fclass": "christian", "name": "Paul's Prayers Centre Bangladesh" }, "geometry": { "type": "Point", "coordinates": [ 89.0397453, 25.6700594 ] } }
]
}
